{
"type": "FeatureCollection",
"name": "places_wilpattu",
"crs": { "type": "name", "properties": { "name": "urn:ogc:def:crs:OGC:1.3:CRS84" } },
"features": [
{ "type": "Feature", "properties": { "osm_id": "41626831", "code": 1002, "fclass": "town", "population": 5000, "name": "Ella" }, "geometry": { "type": "Point", "coordinates": [ 81.0489927, 6.8736058 ] } },
{ "type": "Feature", "properties": { "osm_id": "44240758", "code": 1001, "fclass": "city", "population": 27500, "name": "Nuwara Eliya" }, "geometry": { "type": "Point", "coordinates": [ 80.7669855, 6.9739741 ] } },
{ "type": "Feature", "properties": { "osm_id": "49374844", "code": 1001, "fclass": "city", "population": 17900, "name": "Kegalle" }, "geometry": { "type": "Point", "coordinates": [ 80.3454132, 7.2532006 ] } },
{ "type": "Feature", "properties": { "osm_id": "50414847", "code": 1003, "fclass": "village", "population": 5000, "name": "Talpe" }, "geometry": { "type": "Point", "coordinates": [ 80.2811795, 5.9971428 ] } },
{ "type": "Feature", "properties": { "osm_id": "50416229", "code": 1010, "fclass": "suburb", "population": 10000, "name": "Mahamodara" }, "geometry": { "type": "Point", "coordinates": [ 80.2013241, 6.0417067 ] } },
{ "type": "Feature", "properties": { "osm_id": "50416271", "code": 1010, "fclass": "suburb", "population": 10000, "name": "Kaluwella" }, "geometry": { "type": "Point", "coordinates": [ 80.2122467, 6.0346306 ] } },
{ "type": "Feature", "properties": { "osm_id": "50416277", "code": 1010, "fclass": "suburb", "population": 0, "name": "Magalle" }, "geometry": { "type": "Point", "coordinates": [ 80.23748, 6.0342456 ] } },
{ "type": "Feature", "properties": { "osm_id": "50416399", "code": 1003, "fclass": "village", "population": 5000, "name": "Koggala" }, "geometry": { "type": "Point", "coordinates": [ 80.3226304, 5.9903676 ] } },
{ "type": "Feature", "properties": { "osm_id": "50769618", "code": 1002, "fclass": "town", "population": 15000, "name": "Mirissa" }, "geometry": { "type": "Point", "coordinates": [ 80.4558128, 5.9493634 ] } },
{ "type": "Feature", "properties": { "osm_id": "50794342", "code": 1001, "fclass": "city", "population": 753000, "name": "Colombo" }, "geometry": { "type": "Point", "coordinates": [ 79.8542005, 6.9388614 ] } },
{ "type": "Feature", "properties": { "osm_id": "51216347", "code": 1002, "fclass": "town", "population": 11200, "name": "Tangalle" }, "geometry": { "type": "Point", "coordinates": [ 80.7949279, 6.0250847 ] } },
{ "type": "Feature", "properties": { "osm_id": "51226428", "code": 1002, "fclass": "town", "population": 7000, "name": "Pussellawa" }, "geometry": { "type": "Point", "coordinates": [ 80.6337679, 7.110145 ] } },
{ "type": "Feature", "properties": { "osm_id": "51226438", "code": 1003, "fclass": "village", "population": 1500, "name": "Hakgala" }, "geometry": { "type": "Point", "coordinates": [ 80.8262591, 6.92375 ] } },
{ "type": "Feature", "properties": { "osm_id": "51226446", "code": 1004, "fclass": "hamlet", "population": 500, "name": "Boragas" }, "geometry": { "type": "Point", "coordinates": [ 80.8407873, 6.9078759 ] } },
{ "type": "Feature", "properties": { "osm_id": "51226450", "code": 1003, "fclass": "village", "population": 500, "name": "Keppetipola" }, "geometry": { "type": "Point", "coordinates": [ 80.8694619, 6.8948998 ] } },
{ "type": "Feature", "properties": { "osm_id": "51232363", "code": 1002, "fclass": "town", "population": 10000, "name": "Tanamalwila" }, "geometry": { "type": "Point", "coordinates": [ 81.1302757, 6.4362434 ] } },
{ "type": "Feature", "properties": { "osm_id": "51232367", "code": 1002, "fclass": "town", "population": 5000, "name": "Lunugamvehera" }, "geometry": { "type": "Point", "coordinates": [ 81.1961423, 6.3470414 ] } },
{ "type": "Feature", "properties": { "osm_id": "51232378", "code": 1002, "fclass": "town", "population": 10000, "name": "Weerawila" }, "geometry": { "type": "Point", "coordinates": [ 81.2281152, 6.2574968 ] } },
{ "type": "Feature", "properties": { "osm_id": "51232381", "code": 1002, "fclass": "town", "population": 15000, "name": "Ambalantota" }, "geometry": { "type": "Point", "coordinates": [ 81.0238588, 6.1224627 ] } },
{ "type": "Feature", "properties": { "osm_id": "51232382", "code": 1003, "fclass": "village", "population": 5000, "name": "Nonagama" }, "geometry": { "type": "Point", "coordinates": [ 80.9921128, 6.1126485 ] } },
{ "type": "Feature", "properties": { "osm_id": "51232384", "code": 1002, "fclass": "town", "population": 15000, "name": "Hungama" }, "geometry": { "type": "Point", "coordinates": [ 80.9320164, 6.1099095 ] } },
{ "type": "Feature", "properties": { "osm_id": "51232436", "code": 1002, "fclass": "town", "population": 5000, "name": "Ranna" }, "geometry": { "type": "Point", "coordinates": [ 80.8751364, 6.0970103 ] } },
{ "type": "Feature", "properties": { "osm_id": "51237546", "code": 1002, "fclass": "town", "population": 10000, "name": "Pasyala" }, "geometry": { "type": "Point", "coordinates": [ 80.1242004, 7.1684426 ] } },
{ "type": "Feature", "properties": { "osm_id": "51237600", "code": 1002, "fclass": "town", "population": 15000, "name": "Mawanella" }, "geometry": { "type": "Point", "coordinates": [ 80.4469352, 7.2523524 ] } },
{ "type": "Feature", "properties": { "osm_id": "51237603", "code": 1002, "fclass": "town", "population": 15000, "name": "Kadawatha" }, "geometry": { "type": "Point", "coordinates": [ 79.9512274, 7.002137 ] } },
{ "type": "Feature", "properties": { "osm_id": "51245124", "code": 1010, "fclass": "suburb", "population": 10000, "name": "Weliwatta" }, "geometry": { "type": "Point", "coordinates": [ 80.2207475, 6.0399173 ] } },
{ "type": "Feature", "properties": { "osm_id": "61522016", "code": 1003, "fclass": "village", "population": 1000, "name": "Monrovia" }, "geometry": { "type": "Point", "coordinates": [ 80.1580397, 6.1180647 ] } },
{ "type": "Feature", "properties": { "osm_id": "61522032", "code": 1003, "fclass": "village", "population": 1000, "name": "Kattupol Watta" }, "geometry": { "type": "Point", "coordinates": [ 80.1667793, 6.1209159 ] } },
{ "type": "Feature", "properties": { "osm_id": "61557398", "code": 1001, "fclass": "city", "population": 207000, "name": "Moratuwa" }, "geometry": { "type": "Point", "coordinates": [ 79.8826095, 6.7746821 ] } },
{ "type": "Feature", "properties": { "osm_id": "61602698", "code": 1003, "fclass": "village", "population": 1000, "name": "Rajgama" }, "geometry": { "type": "Point", "coordinates": [ 80.1416237, 6.0915285 ] } },
{ "type": "Feature", "properties": { "osm_id": "77369078", "code": 1002, "fclass": "town", "population": 15000, "name": "Dondra" }, "geometry": { "type": "Point", "coordinates": [ 80.5893555, 5.9281039 ] } },
{ "type": "Feature", "properties": { "osm_id": "98593218", "code": 1002, "fclass": "town", "population": 15000, "name": "Akuressa" }, "geometry": { "type": "Point", "coordinates": [ 80.4764879, 6.1011778 ] } },
{ "type": "Feature", "properties": { "osm_id": "102764947", "code": 1003, "fclass": "village", "population": 0, "name": "Kahaduwawatta" }, "geometry": { "type": "Point", "coordinates": [ 80.2145368, 6.0648309 ] } },
{ "type": "Feature", "properties": { "osm_id": "129616015", "code": 1002, "fclass": "town", "population": 5000, "name": "Bandaragama" }, "geometry": { "type": "Point", "coordinates": [ 79.9889673, 6.7145129 ] } },
{ "type": "Feature", "properties": { "osm_id": "129616333", "code": 1010, "fclass": "suburb", "population": 1000, "name": "Kalubowila" }, "geometry": { "type": "Point", "coordinates": [ 79.8772942, 6.8664575 ] } },
{ "type": "Feature", "properties": { "osm_id": "130460965", "code": 1003, "fclass": "village", "population": 1000, "name": "Thalgasgoda" }, "geometry": { "type": "Point", "coordinates": [ 80.0747682, 6.2473323 ] } },
{ "type": "Feature", "properties": { "osm_id": "130461056", "code": 1003, "fclass": "village", "population": 1000, "name": "Thalgaskanda" }, "geometry": { "type": "Point", "coordinates": [ 80.0812289, 6.2487572 ] } },
{ "type": "Feature", "properties": { "osm_id": "134253719", "code": 1002, "fclass": "town", "population": 15000, "name": "Dehiwala" }, "geometry": { "type": "Point", "coordinates": [ 79.8659769, 6.8512785 ] } },
{ "type": "Feature", "properties": { "osm_id": "198828296", "code": 1003, "fclass": "village", "population": 10000, "name": "Pannipitiya" }, "geometry": { "type": "Point", "coordinates": [ 79.9486254, 6.8464397 ] } },
{ "type": "Feature", "properties": { "osm_id": "198828328", "code": 1002, "fclass": "town", "population": 15000, "name": "Nugegoda" }, "geometry": { "type": "Point", "coordinates": [ 79.8882835, 6.8699688 ] } },
{ "type": "Feature", "properties": { "osm_id": "245519771", "code": 1002, "fclass": "town", "population": 5000, "name": "Padukka" }, "geometry": { "type": "Point", "coordinates": [ 80.0916472, 6.8415384 ] } },
{ "type": "Feature", "properties": { "osm_id": "247205705", "code": 1002, "fclass": "town", "population": 16200, "name": "Hatton" }, "geometry": { "type": "Point", "coordinates": [ 80.5984591, 6.8916333 ] } },
{ "type": "Feature", "properties": { "osm_id": "247206090", "code": 1002, "fclass": "town", "population": 15000, "name": "Ginigathhena" }, "geometry": { "type": "Point", "coordinates": [ 80.4941848, 6.9890908 ] } },
{ "type": "Feature", "properties": { "osm_id": "247211381", "code": 1002, "fclass": "town", "population": 5000, "name": "Talawakele" }, "geometry": { "type": "Point", "coordinates": [ 80.661471, 6.9380776 ] } },
{ "type": "Feature", "properties": { "osm_id": "247220841", "code": 1001, "fclass": "city", "population": 120000, "name": "Hambantota" }, "geometry": { "type": "Point", "coordinates": [ 81.1242563, 6.1249126 ] } },
{ "type": "Feature", "properties": { "osm_id": "248049206", "code": 1003, "fclass": "village", "population": 1000, "name": "Nalagasdeniya" }, "geometry": { "type": "Point", "coordinates": [ 80.1094221, 6.1403764 ] } },
{ "type": "Feature", "properties": { "osm_id": "248049211", "code": 1003, "fclass": "village", "population": 1000, "name": "Poddala" }, "geometry": { "type": "Point", "coordinates": [ 80.2172265, 6.1157677 ] } },
{ "type": "Feature", "properties": { "osm_id": "250131587", "code": 1003, "fclass": "village", "population": 5000, "name": "Yayawatta" }, "geometry": { "type": "Point", "coordinates": [ 80.7354624, 6.005693 ] } },
{ "type": "Feature", "properties": { "osm_id": "250131633", "code": 1003, "fclass": "village", "population": 5000, "name": "Yayawatta Palotha" }, "geometry": { "type": "Point", "coordinates": [ 80.748394, 6.015619 ] } },
{ "type": "Feature", "properties": { "osm_id": "250132081", "code": 1003, "fclass": "village", "population": 1000, "name": "Akurala" }, "geometry": { "type": "Point", "coordinates": [ 80.0629238, 6.192196 ] } },
{ "type": "Feature", "properties": { "osm_id": "250132087", "code": 1003, "fclass": "village", "population": 1000, "name": "Madampagama" }, "geometry": { "type": "Point", "coordinates": [ 80.0591135, 6.214748 ] } },
{ "type": "Feature", "properties": { "osm_id": "250132108", "code": 1050, "fclass": "locality", "population": 1000, "name": "Polwatta Junction" }, "geometry": { "type": "Point", "coordinates": [ 80.0628985, 6.2456678 ] } },
{ "type": "Feature", "properties": { "osm_id": "250132238", "code": 1003, "fclass": "village", "population": 1000, "name": "Urawatte" }, "geometry": { "type": "Point", "coordinates": [ 80.055321, 6.2249305 ] } },
{ "type": "Feature", "properties": { "osm_id": "250132319", "code": 1003, "fclass": "village", "population": 1000, "name": "Peraliya" }, "geometry": { "type": "Point", "coordinates": [ 80.0899137, 6.1666809 ] } },
{ "type": "Feature", "properties": { "osm_id": "250132419", "code": 1003, "fclass": "village", "population": 1000, "name": "Owakanda" }, "geometry": { "type": "Point", "coordinates": [ 80.1526817, 6.0801537 ] } },
{ "type": "Feature", "properties": { "osm_id": "250132431", "code": 1010, "fclass": "suburb", "population": 1000, "name": "Dadalla" }, "geometry": { "type": "Point", "coordinates": [ 80.1922445, 6.0467062 ] } },
{ "type": "Feature", "properties": { "osm_id": "250132438", "code": 1003, "fclass": "village", "population": 5000, "name": "Thalaramba" }, "geometry": { "type": "Point", "coordinates": [ 80.4753806, 5.9398427 ] } },
{ "type": "Feature", "properties": { "osm_id": "250132444", "code": 1002, "fclass": "town", "population": 15000, "name": "Walgama" }, "geometry": { "type": "Point", "coordinates": [ 80.5149276, 5.9424672 ] } },
{ "type": "Feature", "properties": { "osm_id": "250132486", "code": 1003, "fclass": "village", "population": 5000, "name": "Pamburana" }, "geometry": { "type": "Point", "coordinates": [ 80.5285454, 5.9451958 ] } },
{ "type": "Feature", "properties": { "osm_id": "250132536", "code": 1003, "fclass": "village", "population": 5000, "name": "Kamburugamuwa" }, "geometry": { "type": "Point", "coordinates": [ 80.4942905, 5.9411497 ] } },
{ "type": "Feature", "properties": { "osm_id": "250135758", "code": 1003, "fclass": "village", "population": 5000, "name": "Polhena" }, "geometry": { "type": "Point", "coordinates": [ 80.524231, 5.9394504 ] } },
{ "type": "Feature", "properties": { "osm_id": "250730974", "code": 1002, "fclass": "town", "population": 15000, "name": "Pelawatte" }, "geometry": { "type": "Point", "coordinates": [ 79.9289573, 6.891596 ] } },
{ "type": "Feature", "properties": { "osm_id": "250781785", "code": 1010, "fclass": "suburb", "population": 10000, "name": "Nawala" }, "geometry": { "type": "Point", "coordinates": [ 79.8871921, 6.8869823 ] } },
{ "type": "Feature", "properties": { "osm_id": "251366138", "code": 1003, "fclass": "village", "population": 5000, "name": "Gandara" }, "geometry": { "type": "Point", "coordinates": [ 80.613406, 5.9377157 ] } },
{ "type": "Feature", "properties": { "osm_id": "251366149", "code": 1003, "fclass": "village", "population": 1000, "name": "Kottagoda" }, "geometry": { "type": "Point", "coordinates": [ 80.6370242, 5.9494342 ] } },
{ "type": "Feature", "properties": { "osm_id": "251844762", "code": 1003, "fclass": "village", "population": 5000, "name": "Pokunuwita" }, "geometry": { "type": "Point", "coordinates": [ 80.0339642, 6.7260305 ] } },
{ "type": "Feature", "properties": { "osm_id": "251844978", "code": 1002, "fclass": "town", "population": 15000, "name": "Boralesgamuwa" }, "geometry": { "type": "Point", "coordinates": [ 79.9017028, 6.8410598 ] } },
{ "type": "Feature", "properties": { "osm_id": "251845035", "code": 1010, "fclass": "suburb", "population": 5000, "name": "Raththanapitiya" }, "geometry": { "type": "Point", "coordinates": [ 79.8977298, 6.8483963 ] } },
{ "type": "Feature", "properties": { "osm_id": "251845067", "code": 1010, "fclass": "suburb", "population": 1000, "name": "Kohuwala" }, "geometry": { "type": "Point", "coordinates": [ 79.8847353, 6.8670544 ] } },
{ "type": "Feature", "properties": { "osm_id": "252537454", "code": 1004, "fclass": "hamlet", "population": 500, "name": "Asiri Uyana" }, "geometry": { "type": "Point", "coordinates": [ 79.975734, 6.8075228 ] } },
{ "type": "Feature", "properties": { "osm_id": "252537457", "code": 1003, "fclass": "village", "population": 5000, "name": "Kahathuduwa" }, "geometry": { "type": "Point", "coordinates": [ 79.9839654, 6.7831285 ] } },
{ "type": "Feature", "properties": { "osm_id": "252542243", "code": 1010, "fclass": "suburb", "population": 1000, "name": "Katugoda" }, "geometry": { "type": "Point", "coordinates": [ 80.2410351, 6.0333514 ] } },
{ "type": "Feature", "properties": { "osm_id": "252542985", "code": 1002, "fclass": "town", "population": 32300, "name": "Ja-ela" }, "geometry": { "type": "Point", "coordinates": [ 79.8907632, 7.0793775 ] } },
{ "type": "Feature", "properties": { "osm_id": "256824209", "code": 1004, "fclass": "hamlet", "population": 200, "name": "Thalagala Junction" }, "geometry": { "type": "Point", "coordinates": [ 80.042029, 6.797989 ] } },
{ "type": "Feature", "properties": { "osm_id": "256824244", "code": 1002, "fclass": "town", "population": 20000, "name": "Battaramulla" }, "geometry": { "type": "Point", "coordinates": [ 79.9195776, 6.9021809 ] } },
{ "type": "Feature", "properties": { "osm_id": "258031093", "code": 1002, "fclass": "town", "population": 68800, "name": "Dambulla" }, "geometry": { "type": "Point", "coordinates": [ 80.6510917, 7.8742031 ] } },
{ "type": "Feature", "properties": { "osm_id": "258034509", "code": 1002, "fclass": "town", "population": 15000, "name": "Katugastota" }, "geometry": { "type": "Point", "coordinates": [ 80.6249552, 7.3220837 ] } },
{ "type": "Feature", "properties": { "osm_id": "258047343", "code": 1002, "fclass": "town", "population": 15000, "name": "Habarana" }, "geometry": { "type": "Point", "coordinates": [ 80.7554997, 8.0398876 ] } },
{ "type": "Feature", "properties": { "osm_id": "258049423", "code": 1001, "fclass": "city", "population": 40800, "name": "Matale" }, "geometry": { "type": "Point", "coordinates": [ 80.6234307, 7.4720453 ] } },
{ "type": "Feature", "properties": { "osm_id": "258523517", "code": 1001, "fclass": "city", "population": 15000, "name": "Polonnaruwa" }, "geometry": { "type": "Point", "coordinates": [ 81.0003387, 7.9395357 ] } },
{ "type": "Feature", "properties": { "osm_id": "258615787", "code": 1002, "fclass": "town", "population": 5000, "name": "Naula" }, "geometry": { "type": "Point", "coordinates": [ 80.6530833, 7.7070389 ] } },
{ "type": "Feature", "properties": { "osm_id": "258615791", "code": 1003, "fclass": "village", "population": 1000, "name": "Hunganwela" }, "geometry": { "type": "Point", "coordinates": [ 80.6413048, 7.6775782 ] } },
{ "type": "Feature", "properties": { "osm_id": "258615793", "code": 1003, "fclass": "village", "population": 2000, "name": "Palapathwela" }, "geometry": { "type": "Point", "coordinates": [ 80.6275032, 7.5369467 ] } },
{ "type": "Feature", "properties": { "osm_id": "258615799", "code": 1004, "fclass": "hamlet", "population": 1500, "name": "Kudugala" }, "geometry": { "type": "Point", "coordinates": [ 80.6175631, 7.3582677 ] } },
{ "type": "Feature", "properties": { "osm_id": "258615800", "code": 1003, "fclass": "village", "population": 5000, "name": "Ambatenna" }, "geometry": { "type": "Point", "coordinates": [ 80.6142184, 7.3508935 ] } },
{ "type": "Feature", "properties": { "osm_id": "263179685", "code": 1004, "fclass": "hamlet", "population": 10000, "name": "Mulgampola" }, "geometry": { "type": "Point", "coordinates": [ 80.6179819, 7.2778352 ] } },
{ "type": "Feature", "properties": { "osm_id": "263798278", "code": 1003, "fclass": "village", "population": 3000, "name": "Atabage" }, "geometry": { "type": "Point", "coordinates": [ 80.5978714, 7.1350219 ] } },
{ "type": "Feature", "properties": { "osm_id": "264605806", "code": 1010, "fclass": "suburb", "population": 10000, "name": "Peradeniya" }, "geometry": { "type": "Point", "coordinates": [ 80.5930652, 7.2642107 ] } },
{ "type": "Feature", "properties": { "osm_id": "265874918", "code": 1003, "fclass": "village", "population": 5000, "name": "Yala Junction" }, "geometry": { "type": "Point", "coordinates": [ 80.07151, 6.6634307 ] } },
{ "type": "Feature", "properties": { "osm_id": "265874956", "code": 1003, "fclass": "village", "population": 5000, "name": "Anguruwathota" }, "geometry": { "type": "Point", "coordinates": [ 80.0762915, 6.645179 ] } },
{ "type": "Feature", "properties": { "osm_id": "265875005", "code": 1003, "fclass": "village", "population": 5000, "name": "Galpatha" }, "geometry": { "type": "Point", "coordinates": [ 80.0249444, 6.6293988 ] } },
{ "type": "Feature", "properties": { "osm_id": "266478441", "code": 1003, "fclass": "village", "population": 1000, "name": "Kadewatta" }, "geometry": { "type": "Point", "coordinates": [ 80.4358122, 5.9834746 ] } },
{ "type": "Feature", "properties": { "osm_id": "267304700", "code": 1003, "fclass": "village", "population": 5000, "name": "Malagala" }, "geometry": { "type": "Point", "coordinates": [ 80.109788, 6.7919138 ] } },
{ "type": "Feature", "properties": { "osm_id": "267304734", "code": 1003, "fclass": "village", "population": 1700, "name": "Dambara" }, "geometry": { "type": "Point", "coordinates": [ 80.1026629, 6.7628853 ] } },
{ "type": "Feature", "properties": { "osm_id": "267304789", "code": 1003, "fclass": "village", "population": 5000, "name": "Kahawala" }, "geometry": { "type": "Point", "coordinates": [ 80.1115905, 6.7753792 ] } },
{ "type": "Feature", "properties": { "osm_id": "267304812", "code": 1003, "fclass": "village", "population": 1400, "name": "Ihala Millawa North" }, "geometry": { "type": "Point", "coordinates": [ 80.0726646, 6.7871354 ] } },
{ "type": "Feature", "properties": { "osm_id": "267304862", "code": 1003, "fclass": "village", "population": 2850, "name": "Pahala Millawa North" }, "geometry": { "type": "Point", "coordinates": [ 80.0827337, 6.7989253 ] } },
{ "type": "Feature", "properties": { "osm_id": "267305055", "code": 1003, "fclass": "village", "population": 5000, "name": "Gurugoda" }, "geometry": { "type": "Point", "coordinates": [ 80.0994374, 6.7264407 ] } },
{ "type": "Feature", "properties": { "osm_id": "267305145", "code": 1003, "fclass": "village", "population": 5000, "name": "Kananwila" }, "geometry": { "type": "Point", "coordinates": [ 80.0518337, 6.7500925 ] } },
{ "type": "Feature", "properties": { "osm_id": "267305352", "code": 1003, "fclass": "village", "population": 5000, "name": "Gelanigama" }, "geometry": { "type": "Point", "coordinates": [ 80.0013608, 6.7187694 ] } },
{ "type": "Feature", "properties": { "osm_id": "267305391", "code": 1003, "fclass": "village", "population": 5000, "name": "Raigama" }, "geometry": { "type": "Point", "coordinates": [ 80.0108447, 6.7186391 ] } },
{ "type": "Feature", "properties": { "osm_id": "267305559", "code": 1003, "fclass": "village", "population": 5000, "name": "Gonapola" }, "geometry": { "type": "Point", "coordinates": [ 80.0130531, 6.7638594 ] } },
{ "type": "Feature", "properties": { "osm_id": "267305868", "code": 1003, "fclass": "village", "population": 5000, "name": "Kumbuka" }, "geometry": { "type": "Point", "coordinates": [ 80.0286247, 6.7356237 ] } },
{ "type": "Feature", "properties": { "osm_id": "267305985", "code": 1003, "fclass": "village", "population": 5000, "name": "Pinhena" }, "geometry": { "type": "Point", "coordinates": [ 79.9646627, 6.8330326 ] } },
{ "type": "Feature", "properties": { "osm_id": "292785668", "code": 1002, "fclass": "town", "population": 15000, "name": "Seeduwa" }, "geometry": { "type": "Point", "coordinates": [ 79.8782394, 7.1306288 ] } },
{ "type": "Feature", "properties": { "osm_id": "309607443", "code": 1002, "fclass": "town", "population": 10000, "name": "Labuduwa" }, "geometry": { "type": "Point", "coordinates": [ 80.2318917, 6.0727684 ] } },
{ "type": "Feature", "properties": { "osm_id": "309897025", "code": 1010, "fclass": "suburb", "population": 10000, "name": "Karapitiya" }, "geometry": { "type": "Point", "coordinates": [ 80.2257615, 6.0670789 ] } },
{ "type": "Feature", "properties": { "osm_id": "309898394", "code": 1003, "fclass": "village", "population": 1000, "name": "Godakanda" }, "geometry": { "type": "Point", "coordinates": [ 80.2228397, 6.0780775 ] } },
{ "type": "Feature", "properties": { "osm_id": "309898644", "code": 1003, "fclass": "village", "population": 1000, "name": "Galketiya" }, "geometry": { "type": "Point", "coordinates": [ 80.22329, 6.0757899 ] } },
{ "type": "Feature", "properties": { "osm_id": "310166096", "code": 1003, "fclass": "village", "population": 5000, "name": "Hapugala" }, "geometry": { "type": "Point", "coordinates": [ 80.1975697, 6.0757917 ] } },
{ "type": "Feature", "properties": { "osm_id": "310166135", "code": 1003, "fclass": "village", "population": 5000, "name": "Wakwella" }, "geometry": { "type": "Point", "coordinates": [ 80.1848753, 6.1011226 ] } },
{ "type": "Feature", "properties": { "osm_id": "310166136", "code": 1003, "fclass": "village", "population": 0, "name": "Kithulampitiya" }, "geometry": { "type": "Point", "coordinates": [ 80.2053202, 6.0648926 ] } },
{ "type": "Feature", "properties": { "osm_id": "313390093", "code": 1004, "fclass": "hamlet", "population": 500, "name": "Periyamulla" }, "geometry": { "type": "Point", "coordinates": [ 79.8453599, 7.2194111 ] } },
{ "type": "Feature", "properties": { "osm_id": "313407388", "code": 1002, "fclass": "town", "population": 15000, "name": "Kochchikade" }, "geometry": { "type": "Point", "coordinates": [ 79.8590371, 7.2649211 ] } },
{ "type": "Feature", "properties": { "osm_id": "313808390", "code": 1003, "fclass": "village", "population": 1000, "name": "Mihira" }, "geometry": { "type": "Point", "coordinates": [ 80.148476, 6.0847625 ] } },
{ "type": "Feature", "properties": { "osm_id": "313808479", "code": 1003, "fclass": "village", "population": 1000, "name": "Gamaddegoda" }, "geometry": { "type": "Point", "coordinates": [ 80.1458152, 6.0881337 ] } },
{ "type": "Feature", "properties": { "osm_id": "313809466", "code": 1003, "fclass": "village", "population": 1000, "name": "Wewala" }, "geometry": { "type": "Point", "coordinates": [ 80.1034626, 6.1298515 ] } },
{ "type": "Feature", "properties": { "osm_id": "313809710", "code": 1003, "fclass": "village", "population": 1000, "name": "Seenigama" }, "geometry": { "type": "Point", "coordinates": [ 80.0930219, 6.1572576 ] } },
{ "type": "Feature", "properties": { "osm_id": "313809891", "code": 1003, "fclass": "village", "population": 1000, "name": "Thelwatta" }, "geometry": { "type": "Point", "coordinates": [ 80.0862058, 6.1734308 ] } },
{ "type": "Feature", "properties": { "osm_id": "313809951", "code": 1003, "fclass": "village", "population": 1000, "name": "Godagama" }, "geometry": { "type": "Point", "coordinates": [ 80.0796827, 6.1794041 ] } },
{ "type": "Feature", "properties": { "osm_id": "313809996", "code": 1003, "fclass": "village", "population": 1000, "name": "Kahawa" }, "geometry": { "type": "Point", "coordinates": [ 80.0723657, 6.1839907 ] } },
{ "type": "Feature", "properties": { "osm_id": "313810388", "code": 1003, "fclass": "village", "population": 1000, "name": "Kuleegoda" }, "geometry": { "type": "Point", "coordinates": [ 80.0704568, 6.2139499 ] } },
{ "type": "Feature", "properties": { "osm_id": "313811388", "code": 1003, "fclass": "village", "population": 1000, "name": "Randombe" }, "geometry": { "type": "Point", "coordinates": [ 80.0442346, 6.2525285 ] } },
{ "type": "Feature", "properties": { "osm_id": "313811721", "code": 1003, "fclass": "village", "population": 0, "name": null }, "geometry": { "type": "Point", "coordinates": [ 80.0394281, 6.2689097 ] } },
{ "type": "Feature", "properties": { "osm_id": "313811771", "code": 1003, "fclass": "village", "population": 1000, "name": "Wathuregama" }, "geometry": { "type": "Point", "coordinates": [ 80.0399008, 6.2955924 ] } },
{ "type": "Feature", "properties": { "osm_id": "324707446", "code": 1002, "fclass": "town", "population": 15000, "name": "Kankesanturai" }, "geometry": { "type": "Point", "coordinates": [ 80.0374464, 9.8118663 ] } },
{ "type": "Feature", "properties": { "osm_id": "324707634", "code": 1002, "fclass": "town", "population": 15000, "name": "Chunnakam" }, "geometry": { "type": "Point", "coordinates": [ 80.028827, 9.7430313 ] } },
{ "type": "Feature", "properties": { "osm_id": "330173100", "code": 1001, "fclass": "city", "population": 45400, "name": "Puttalam" }, "geometry": { "type": "Point", "coordinates": [ 79.8286545, 8.030245 ] } },
{ "type": "Feature", "properties": { "osm_id": "335253618", "code": 1001, "fclass": "city", "population": 99100, "name": "Trincomalee" }, "geometry": { "type": "Point", "coordinates": [ 81.2344952, 8.576425 ] } },
{ "type": "Feature", "properties": { "osm_id": "339885285", "code": 1002, "fclass": "town", "population": 5000, "name": "Talaimannar" }, "geometry": { "type": "Point", "coordinates": [ 79.7307431, 9.1055245 ] } },
{ "type": "Feature", "properties": { "osm_id": "340000603", "code": 1004, "fclass": "hamlet", "population": 500, "name": "Maveliturai" }, "geometry": { "type": "Point", "coordinates": [ 79.7110517, 9.5238698 ] } },
{ "type": "Feature", "properties": { "osm_id": "340001017", "code": 1003, "fclass": "village", "population": 5000, "name": "Malaiyadi" }, "geometry": { "type": "Point", "coordinates": [ 79.772919, 9.5939073 ] } },
{ "type": "Feature", "properties": { "osm_id": "340001153", "code": 1004, "fclass": "hamlet", "population": 500, "name": "Sothithelvu" }, "geometry": { "type": "Point", "coordinates": [ 79.8498658, 9.5744642 ] } },
{ "type": "Feature", "properties": { "osm_id": "388241712", "code": 1002, "fclass": "town", "population": 5000, "name": "Thihagoda" }, "geometry": { "type": "Point", "coordinates": [ 80.565877, 6.0127562 ] } },
{ "type": "Feature", "properties": { "osm_id": "388245026", "code": 1002, "fclass": "town", "population": 10000, "name": "Yatiyana" }, "geometry": { "type": "Point", "coordinates": [ 80.6012659, 6.024698 ] } },
{ "type": "Feature", "properties": { "osm_id": "388253832", "code": 1010, "fclass": "suburb", "population": 5000, "name": "Welegoda" }, "geometry": { "type": "Point", "coordinates": [ 80.5316289, 5.9525185 ] } },
{ "type": "Feature", "properties": { "osm_id": "388261676", "code": 1003, "fclass": "village", "population": 5000, "name": "Wewurukannala" }, "geometry": { "type": "Point", "coordinates": [ 80.6982869, 5.9772933 ] } },
{ "type": "Feature", "properties": { "osm_id": "388262220", "code": 1003, "fclass": "village", "population": 5000, "name": "Walasgala" }, "geometry": { "type": "Point", "coordinates": [ 80.699933, 5.9854942 ] } },
{ "type": "Feature", "properties": { "osm_id": "540529437", "code": 1002, "fclass": "town", "population": 15000, "name": "Matugama" }, "geometry": { "type": "Point", "coordinates": [ 80.1142603, 6.5229542 ] } },
{ "type": "Feature", "properties": { "osm_id": "558931492", "code": 1002, "fclass": "town", "population": 15000, "name": "Athurugiriya" }, "geometry": { "type": "Point", "coordinates": [ 79.9899292, 6.8772464 ] } },
{ "type": "Feature", "properties": { "osm_id": "566568740", "code": 1003, "fclass": "village", "population": 5000, "name": "Ihalagama" }, "geometry": { "type": "Point", "coordinates": [ 80.5528316, 8.0584255 ] } },
{ "type": "Feature", "properties": { "osm_id": "566568747", "code": 1003, "fclass": "village", "population": 5000, "name": "Andiyagala" }, "geometry": { "type": "Point", "coordinates": [ 80.5237321, 7.9030308 ] } },
{ "type": "Feature", "properties": { "osm_id": "566574609", "code": 1003, "fclass": "village", "population": 5000, "name": "Talawa" }, "geometry": { "type": "Point", "coordinates": [ 80.3506415, 8.2366956 ] } },
{ "type": "Feature", "properties": { "osm_id": "566574942", "code": 1001, "fclass": "city", "population": 63200, "name": "Anuradhapura" }, "geometry": { "type": "Point", "coordinates": [ 80.4106096, 8.334985 ] } },
{ "type": "Feature", "properties": { "osm_id": "590036103", "code": 1010, "fclass": "suburb", "population": 10000, "name": "Koswatte" }, "geometry": { "type": "Point", "coordinates": [ 79.9293673, 6.9079478 ] } },
{ "type": "Feature", "properties": { "osm_id": "598167631", "code": 1002, "fclass": "town", "population": 5000, "name": "Haputale" }, "geometry": { "type": "Point", "coordinates": [ 80.9602296, 6.7681528 ] } },
{ "type": "Feature", "properties": { "osm_id": "599776563", "code": 1003, "fclass": "village", "population": 5000, "name": "Nambuluwa" }, "geometry": { "type": "Point", "coordinates": [ 79.9760958, 6.826351 ] } },
{ "type": "Feature", "properties": { "osm_id": "599776565", "code": 1003, "fclass": "village", "population": 5000, "name": "Brahmanagama" }, "geometry": { "type": "Point", "coordinates": [ 79.9818137, 6.8215139 ] } },
{ "type": "Feature", "properties": { "osm_id": "599815327", "code": 1003, "fclass": "village", "population": 5000, "name": "Kirigampamunuwa" }, "geometry": { "type": "Point", "coordinates": [ 79.9785599, 6.8053875 ] } },
{ "type": "Feature", "properties": { "osm_id": "603240329", "code": 1003, "fclass": "village", "population": 5000, "name": "Beragala" }, "geometry": { "type": "Point", "coordinates": [ 80.9130843, 6.7637697 ] } },
{ "type": "Feature", "properties": { "osm_id": "610929933", "code": 1002, "fclass": "town", "population": 5000, "name": "Weeraketiya" }, "geometry": { "type": "Point", "coordinates": [ 80.7632359, 6.1484324 ] } },
{ "type": "Feature", "properties": { "osm_id": "610930009", "code": 1003, "fclass": "village", "population": 5000, "name": "Meegasara" }, "geometry": { "type": "Point", "coordinates": [ 80.7688185, 6.2007131 ] } },
{ "type": "Feature", "properties": { "osm_id": "617242457", "code": 1002, "fclass": "town", "population": 15000, "name": "Dankotuwa" }, "geometry": { "type": "Point", "coordinates": [ 79.8821873, 7.2974892 ] } },
{ "type": "Feature", "properties": { "osm_id": "617248525", "code": 1002, "fclass": "town", "population": 15000, "name": "Kotugoda" }, "geometry": { "type": "Point", "coordinates": [ 79.9247807, 7.1234948 ] } },
{ "type": "Feature", "properties": { "osm_id": "617248527", "code": 1002, "fclass": "town", "population": 10000, "name": "Ekala" }, "geometry": { "type": "Point", "coordinates": [ 79.91027, 7.1013158 ] } },
{ "type": "Feature", "properties": { "osm_id": "617248529", "code": 1003, "fclass": "village", "population": 5000, "name": "Industrial Zone" }, "geometry": { "type": "Point", "coordinates": [ 79.899506, 7.1007133 ] } },
{ "type": "Feature", "properties": { "osm_id": "617262856", "code": 1003, "fclass": "village", "population": 5000, "name": "Vidyala Junction" }, "geometry": { "type": "Point", "coordinates": [ 79.9595731, 6.8664947 ] } },
{ "type": "Feature", "properties": { "osm_id": "618529243", "code": 1010, "fclass": "suburb", "population": 15000, "name": "Rajagiriya" }, "geometry": { "type": "Point", "coordinates": [ 79.8962176, 6.9095041 ] } },
{ "type": "Feature", "properties": { "osm_id": "618688780", "code": 1002, "fclass": "town", "population": 5000, "name": "Hingurakgoda" }, "geometry": { "type": "Point", "coordinates": [ 80.9531701, 8.0415145 ] } },
{ "type": "Feature", "properties": { "osm_id": "619133452", "code": 1010, "fclass": "suburb", "population": 10000, "name": "Pitakotte" }, "geometry": { "type": "Point", "coordinates": [ 79.9020482, 6.8840744 ] } },
{ "type": "Feature", "properties": { "osm_id": "619133455", "code": 1002, "fclass": "town", "population": 10000, "name": "Talawatugoda" }, "geometry": { "type": "Point", "coordinates": [ 79.9353613, 6.8763201 ] } },
{ "type": "Feature", "properties": { "osm_id": "619742373", "code": 1003, "fclass": "village", "population": 5000, "name": "Hokandara North" }, "geometry": { "type": "Point", "coordinates": [ 79.9809292, 6.8816229 ] } },
{ "type": "Feature", "properties": { "osm_id": "619742374", "code": 1004, "fclass": "hamlet", "population": 0, "name": "Millenium City" }, "geometry": { "type": "Point", "coordinates": [ 79.9945033, 6.8894108 ] } },
{ "type": "Feature", "properties": { "osm_id": "619880001", "code": 1003, "fclass": "village", "population": 5000, "name": "Habarakada" }, "geometry": { "type": "Point", "coordinates": [ 80.0134781, 6.8656803 ] } },
{ "type": "Feature", "properties": { "osm_id": "619905117", "code": 1001, "fclass": "city", "population": 252000, "name": "Kaduwela" }, "geometry": { "type": "Point", "coordinates": [ 79.9843311, 6.9357027 ] } },
{ "type": "Feature", "properties": { "osm_id": "619905135", "code": 1002, "fclass": "town", "population": 10000, "name": "Miriswatte" }, "geometry": { "type": "Point", "coordinates": [ 80.0160646, 7.0738514 ] } },
{ "type": "Feature", "properties": { "osm_id": "620529015", "code": 1003, "fclass": "village", "population": 5000, "name": "Bopitiya" }, "geometry": { "type": "Point", "coordinates": [ 79.8593207, 7.0795314 ] } },
{ "type": "Feature", "properties": { "osm_id": "620529016", "code": 1003, "fclass": "village", "population": 5000, "name": "Pulluhena" }, "geometry": { "type": "Point", "coordinates": [ 79.8572178, 7.074474 ] } },
{ "type": "Feature", "properties": { "osm_id": "621150152", "code": 1002, "fclass": "town", "population": 15000, "name": "Kiribathgoda" }, "geometry": { "type": "Point", "coordinates": [ 79.9269935, 6.978151 ] } },
{ "type": "Feature", "properties": { "osm_id": "621201131", "code": 1003, "fclass": "village", "population": 5000, "name": "Hekitta" }, "geometry": { "type": "Point", "coordinates": [ 79.8763752, 6.9839168 ] } },
{ "type": "Feature", "properties": { "osm_id": "621940712", "code": 1003, "fclass": "village", "population": 1000, "name": "Karagampitiya" }, "geometry": { "type": "Point", "coordinates": [ 79.8720051, 6.8502681 ] } },
{ "type": "Feature", "properties": { "osm_id": "633759246", "code": 1001, "fclass": "city", "population": 100000, "name": "Mullaitivu" }, "geometry": { "type": "Point", "coordinates": [ 80.8145347, 9.2698532 ] } },
{ "type": "Feature", "properties": { "osm_id": "633777927", "code": 1004, "fclass": "hamlet", "population": 500, "name": "Kadaiparichchan" }, "geometry": { "type": "Point", "coordinates": [ 81.2967443, 8.464251 ] } },
{ "type": "Feature", "properties": { "osm_id": "633777931", "code": 1004, "fclass": "hamlet", "population": 500, "name": "Sanamvali" }, "geometry": { "type": "Point", "coordinates": [ 81.3801717, 8.3720432 ] } },
{ "type": "Feature", "properties": { "osm_id": "633777938", "code": 1004, "fclass": "hamlet", "population": 500, "name": "Killiveddy" }, "geometry": { "type": "Point", "coordinates": [ 81.2857527, 8.3491046 ] } },
{ "type": "Feature", "properties": { "osm_id": "633777951", "code": 1003, "fclass": "village", "population": 5000, "name": "Mutur" }, "geometry": { "type": "Point", "coordinates": [ 81.2667036, 8.4579687 ] } },
{ "type": "Feature", "properties": { "osm_id": "633777955", "code": 1004, "fclass": "hamlet", "population": 500, "name": "Sampur" }, "geometry": { "type": "Point", "coordinates": [ 81.2919393, 8.4846285 ] } },
{ "type": "Feature", "properties": { "osm_id": "634160532", "code": 1003, "fclass": "village", "population": 15000, "name": "Attanagalla" }, "geometry": { "type": "Point", "coordinates": [ 80.1367665, 7.1138383 ] } },
{ "type": "Feature", "properties": { "osm_id": "634172978", "code": 1002, "fclass": "town", "population": 15000, "name": "Mulliyawalai" }, "geometry": { "type": "Point", "coordinates": [ 80.7783112, 9.2255073 ] } },
{ "type": "Feature", "properties": { "osm_id": "634173386", "code": 1002, "fclass": "town", "population": 15000, "name": "Mankulam" }, "geometry": { "type": "Point", "coordinates": [ 80.4460374, 9.1283525 ] } },
{ "type": "Feature", "properties": { "osm_id": "634174328", "code": 1002, "fclass": "town", "population": 15000, "name": "Kanakarayankulam" }, "geometry": { "type": "Point", "coordinates": [ 80.518048, 9.0470052 ] } },
{ "type": "Feature", "properties": { "osm_id": "634174641", "code": 1002, "fclass": "town", "population": 5000, "name": "Nedunkerny" }, "geometry": { "type": "Point", "coordinates": [ 80.6608048, 9.0621351 ] } },
{ "type": "Feature", "properties": { "osm_id": "634179060", "code": 1003, "fclass": "village", "population": 5000, "name": "Nainamadu" }, "geometry": { "type": "Point", "coordinates": [ 80.5990969, 9.0283929 ] } },
{ "type": "Feature", "properties": { "osm_id": "634179061", "code": 1002, "fclass": "town", "population": 15000, "name": "Puliyankulam" }, "geometry": { "type": "Point", "coordinates": [ 80.5249678, 8.965263 ] } },
{ "type": "Feature", "properties": { "osm_id": "634181330", "code": 1003, "fclass": "village", "population": 5000, "name": "Kokavil" }, "geometry": { "type": "Point", "coordinates": [ 80.4125439, 9.2730832 ] } },
{ "type": "Feature", "properties": { "osm_id": "634181331", "code": 1003, "fclass": "village", "population": 5000, "name": "Iranamadu" }, "geometry": { "type": "Point", "coordinates": [ 80.4092187, 9.3342699 ] } },
{ "type": "Feature", "properties": { "osm_id": "634182147", "code": 1001, "fclass": "city", "population": 99600, "name": "Vavuniya" }, "geometry": { "type": "Point", "coordinates": [ 80.5000778, 8.7593517 ] } },
{ "type": "Feature", "properties": { "osm_id": "634187544", "code": 1003, "fclass": "village", "population": 5000, "name": "Inamaluwa" }, "geometry": { "type": "Point", "coordinates": [ 80.6877296, 7.9296392 ] } },
{ "type": "Feature", "properties": { "osm_id": "634201943", "code": 1002, "fclass": "town", "population": 84260, "name": "Rambukkana" }, "geometry": { "type": "Point", "coordinates": [ 80.3957479, 7.3239273 ] } },
{ "type": "Feature", "properties": { "osm_id": "634207826", "code": 1002, "fclass": "town", "population": 15000, "name": "Galagedara" }, "geometry": { "type": "Point", "coordinates": [ 80.5246925, 7.3729671 ] } },
{ "type": "Feature", "properties": { "osm_id": "634222744", "code": 1002, "fclass": "town", "population": 5000, "name": "Puthukkudiyirippu" }, "geometry": { "type": "Point", "coordinates": [ 80.696277, 9.3137049 ] } },
{ "type": "Feature", "properties": { "osm_id": "634224451", "code": 1004, "fclass": "hamlet", "population": 500, "name": "Ampalavanpokkanai" }, "geometry": { "type": "Point", "coordinates": [ 80.7378355, 9.3481981 ] } },
{ "type": "Feature", "properties": { "osm_id": "634224455", "code": 1003, "fclass": "village", "population": 500, "name": "Chalai" }, "geometry": { "type": "Point", "coordinates": [ 80.6657994, 9.4209203 ] } },
{ "type": "Feature", "properties": { "osm_id": "634225682", "code": 1003, "fclass": "village", "population": 500, "name": "Puthumattalan" }, "geometry": { "type": "Point", "coordinates": [ 80.728495, 9.3582439 ] } },
{ "type": "Feature", "properties": { "osm_id": "634225685", "code": 1003, "fclass": "village", "population": 500, "name": "Palamattalan" }, "geometry": { "type": "Point", "coordinates": [ 80.7173633, 9.3710324 ] } },
{ "type": "Feature", "properties": { "osm_id": "634253347", "code": 1001, "fclass": "city", "population": 100000, "name": "Kilinochchi" }, "geometry": { "type": "Point", "coordinates": [ 80.4087224, 9.3840068 ] } },
{ "type": "Feature", "properties": { "osm_id": "634261389", "code": 1002, "fclass": "town", "population": 15000, "name": "Oddusudan" }, "geometry": { "type": "Point", "coordinates": [ 80.6513268, 9.1554375 ] } },
{ "type": "Feature", "properties": { "osm_id": "634262363", "code": 1002, "fclass": "town", "population": 10000, "name": "Paranthan" }, "geometry": { "type": "Point", "coordinates": [ 80.4078621, 9.4372313 ] } },
{ "type": "Feature", "properties": { "osm_id": "634470650", "code": 1003, "fclass": "village", "population": 5000, "name": "Galigamuwa" }, "geometry": { "type": "Point", "coordinates": [ 80.3102645, 7.2357407 ] } },
{ "type": "Feature", "properties": { "osm_id": "634848847", "code": 1002, "fclass": "town", "population": 5000, "name": "Kirindiwela" }, "geometry": { "type": "Point", "coordinates": [ 80.1317271, 7.0431455 ] } },
{ "type": "Feature", "properties": { "osm_id": "636834739", "code": 1003, "fclass": "village", "population": 5000, "name": "Karaitivu" }, "geometry": { "type": "Point", "coordinates": [ 79.8080276, 8.2228084 ] } },
{ "type": "Feature", "properties": { "osm_id": "636859120", "code": 1003, "fclass": "village", "population": 5000, "name": "Moragaswewa" }, "geometry": { "type": "Point", "coordinates": [ 80.7727954, 8.0322026 ] } },
{ "type": "Feature", "properties": { "osm_id": "636866396", "code": 1003, "fclass": "village", "population": 5000, "name": "Kibissa" }, "geometry": { "type": "Point", "coordinates": [ 80.7267997, 7.9392594 ] } },
{ "type": "Feature", "properties": { "osm_id": "636866398", "code": 1003, "fclass": "village", "population": 5000, "name": "Tamaraivillu" }, "geometry": { "type": "Point", "coordinates": [ 81.1916684, 8.4915048 ] } },
{ "type": "Feature", "properties": { "osm_id": "636867709", "code": 1002, "fclass": "town", "population": 5000, "name": "Kantale" }, "geometry": { "type": "Point", "coordinates": [ 81.0028383, 8.3670029 ] } },
{ "type": "Feature", "properties": { "osm_id": "636867711", "code": 1003, "fclass": "village", "population": 5000, "name": "Agbopura" }, "geometry": { "type": "Point", "coordinates": [ 80.9818789, 8.3417817 ] } },
{ "type": "Feature", "properties": { "osm_id": "636901988", "code": 1003, "fclass": "village", "population": 5000, "name": "Kirinde" }, "geometry": { "type": "Point", "coordinates": [ 81.3350166, 6.2174118 ] } },
{ "type": "Feature", "properties": { "osm_id": "636920538", "code": 1003, "fclass": "village", "population": 5000, "name": "Paddippalai" }, "geometry": { "type": "Point", "coordinates": [ 81.7048515, 7.5987902 ] } },
{ "type": "Feature", "properties": { "osm_id": "636923903", "code": 1003, "fclass": "village", "population": 5000, "name": "Urukamam" }, "geometry": { "type": "Point", "coordinates": [ 81.4950366, 7.6505381 ] } },
{ "type": "Feature", "properties": { "osm_id": "636923904", "code": 1003, "fclass": "village", "population": 5000, "name": "Unnichchai" }, "geometry": { "type": "Point", "coordinates": [ 81.5470947, 7.6148695 ] } },
{ "type": "Feature", "properties": { "osm_id": "636931698", "code": 1003, "fclass": "village", "population": 5000, "name": "Cheddipalaiyam" }, "geometry": { "type": "Point", "coordinates": [ 81.7848212, 7.5719716 ] } },
{ "type": "Feature", "properties": { "osm_id": "637029092", "code": 1002, "fclass": "town", "population": 15000, "name": "Narammala" }, "geometry": { "type": "Point", "coordinates": [ 80.2143788, 7.43073 ] } },
{ "type": "Feature", "properties": { "osm_id": "637330801", "code": 1004, "fclass": "hamlet", "population": 500, "name": "Nawinna" }, "geometry": { "type": "Point", "coordinates": [ 79.9134314, 6.8550625 ] } },
{ "type": "Feature", "properties": { "osm_id": "637652815", "code": 1002, "fclass": "town", "population": 15000, "name": "Ragama" }, "geometry": { "type": "Point", "coordinates": [ 79.9236484, 7.0263493 ] } },
{ "type": "Feature", "properties": { "osm_id": "637706199", "code": 1002, "fclass": "town", "population": 5000, "name": "Ganemulla" }, "geometry": { "type": "Point", "coordinates": [ 79.9613944, 7.0682842 ] } },
{ "type": "Feature", "properties": { "osm_id": "637895939", "code": 1002, "fclass": "town", "population": 15000, "name": "Pelmadulla" }, "geometry": { "type": "Point", "coordinates": [ 80.5431464, 6.6234343 ] } },
{ "type": "Feature", "properties": { "osm_id": "637897018", "code": 1001, "fclass": "city", "population": 52100, "name": "Ratnapura" }, "geometry": { "type": "Point", "coordinates": [ 80.4022975, 6.6803691 ] } },
{ "type": "Feature", "properties": { "osm_id": "638941854", "code": 1003, "fclass": "village", "population": 1000, "name": "Udugampola" }, "geometry": { "type": "Point", "coordinates": [ 79.9812272, 7.126079 ] } },
{ "type": "Feature", "properties": { "osm_id": "638948677", "code": 1002, "fclass": "town", "population": 5000, "name": "Divulapitiya" }, "geometry": { "type": "Point", "coordinates": [ 80.0193654, 7.2245446 ] } },
{ "type": "Feature", "properties": { "osm_id": "638948678", "code": 1002, "fclass": "town", "population": 15000, "name": "Mirigama" }, "geometry": { "type": "Point", "coordinates": [ 80.1299215, 7.2475144 ] } },
{ "type": "Feature", "properties": { "osm_id": "638951280", "code": 1002, "fclass": "town", "population": 5000, "name": "Giriulla" }, "geometry": { "type": "Point", "coordinates": [ 80.1225131, 7.3299461 ] } },
{ "type": "Feature", "properties": { "osm_id": "638957830", "code": 1002, "fclass": "town", "population": 15000, "name": "Veyangoda" }, "geometry": { "type": "Point", "coordinates": [ 80.0602466, 7.1534492 ] } },
{ "type": "Feature", "properties": { "osm_id": "638957839", "code": 1003, "fclass": "village", "population": 5000, "name": "Nalapaya" }, "geometry": { "type": "Point", "coordinates": [ 80.0413713, 7.1854322 ] } },
{ "type": "Feature", "properties": { "osm_id": "638957844", "code": 1003, "fclass": "village", "population": 5000, "name": "Dunagaha" }, "geometry": { "type": "Point", "coordinates": [ 79.9736318, 7.2312809 ] } },
{ "type": "Feature", "properties": { "osm_id": "639153516", "code": 1002, "fclass": "town", "population": 76800, "name": "Katunayake" }, "geometry": { "type": "Point", "coordinates": [ 79.8716676, 7.156773 ] } },
{ "type": "Feature", "properties": { "osm_id": "639175794", "code": 1002, "fclass": "town", "population": 15000, "name": "Katana" }, "geometry": { "type": "Point", "coordinates": [ 79.9051957, 7.2505527 ] } },
{ "type": "Feature", "properties": { "osm_id": "639252024", "code": 1003, "fclass": "village", "population": 5000, "name": "Kimbulapitiya" }, "geometry": { "type": "Point", "coordinates": [ 79.8957069, 7.2056808 ] } },
{ "type": "Feature", "properties": { "osm_id": "639252030", "code": 1003, "fclass": "village", "population": 5000, "name": "Andiambalama" }, "geometry": { "type": "Point", "coordinates": [ 79.9078158, 7.1844926 ] } },
{ "type": "Feature", "properties": { "osm_id": "639263035", "code": 1002, "fclass": "town", "population": 15000, "name": "Pannala" }, "geometry": { "type": "Point", "coordinates": [ 80.0241058, 7.328358 ] } },
{ "type": "Feature", "properties": { "osm_id": "639263038", "code": 1003, "fclass": "village", "population": 5000, "name": "Makandura" }, "geometry": { "type": "Point", "coordinates": [ 79.9774078, 7.3220162 ] } },
{ "type": "Feature", "properties": { "osm_id": "639263039", "code": 1003, "fclass": "village", "population": 5000, "name": "Sandalankawa" }, "geometry": { "type": "Point", "coordinates": [ 79.9403539, 7.3005219 ] } },
{ "type": "Feature", "properties": { "osm_id": "639267408", "code": 1003, "fclass": "village", "population": 5000, "name": "Bolawatta" }, "geometry": { "type": "Point", "coordinates": [ 79.8578383, 7.2964862 ] } },
{ "type": "Feature", "properties": { "osm_id": "639267409", "code": 1003, "fclass": "village", "population": 5000, "name": "Nainamadama" }, "geometry": { "type": "Point", "coordinates": [ 79.8474814, 7.3122968 ] } },
{ "type": "Feature", "properties": { "osm_id": "639283195", "code": 1004, "fclass": "hamlet", "population": 500, "name": "Kalahugahawila" }, "geometry": { "type": "Point", "coordinates": [ 80.0975638, 7.1281146 ] } },
{ "type": "Feature", "properties": { "osm_id": "639303995", "code": 1003, "fclass": "village", "population": 5000, "name": "Radawana" }, "geometry": { "type": "Point", "coordinates": [ 80.092349, 7.0338683 ] } },
{ "type": "Feature", "properties": { "osm_id": "639304543", "code": 1003, "fclass": "village", "population": 5000, "name": "Dompe" }, "geometry": { "type": "Point", "coordinates": [ 80.058322, 6.9496578 ] } },
{ "type": "Feature", "properties": { "osm_id": "639306500", "code": 1003, "fclass": "village", "population": 5000, "name": "Godigomuwa" }, "geometry": { "type": "Point", "coordinates": [ 79.9625824, 7.279985 ] } },
{ "type": "Feature", "properties": { "osm_id": "650331671", "code": 1003, "fclass": "village", "population": 5000, "name": "Ambalanwatta" }, "geometry": { "type": "Point", "coordinates": [ 80.2333371, 6.0575573 ] } },
{ "type": "Feature", "properties": { "osm_id": "652394756", "code": 1010, "fclass": "suburb", "population": 10000, "name": "Soysapura" }, "geometry": { "type": "Point", "coordinates": [ 79.885037, 6.8059708 ] } },
{ "type": "Feature", "properties": { "osm_id": "652646582", "code": 1003, "fclass": "village", "population": 5000, "name": "Thihariya" }, "geometry": { "type": "Point", "coordinates": [ 80.0724256, 7.1252272 ] } },
{ "type": "Feature", "properties": { "osm_id": "665006571", "code": 1003, "fclass": "village", "population": 1000, "name": "Arewwala" }, "geometry": { "type": "Point", "coordinates": [ 79.9423268, 6.8339578 ] } },
{ "type": "Feature", "properties": { "osm_id": "665686382", "code": 1002, "fclass": "town", "population": 5000, "name": "Kotikawatte" }, "geometry": { "type": "Point", "coordinates": [ 79.9159756, 6.9361356 ] } },
{ "type": "Feature", "properties": { "osm_id": "665687033", "code": 1003, "fclass": "village", "population": 5000, "name": "Ambatale" }, "geometry": { "type": "Point", "coordinates": [ 79.9448314, 6.9374104 ] } },
{ "type": "Feature", "properties": { "osm_id": "666021104", "code": 1002, "fclass": "town", "population": 15000, "name": "Angoda" }, "geometry": { "type": "Point", "coordinates": [ 79.9257199, 6.9360192 ] } },
{ "type": "Feature", "properties": { "osm_id": "666021113", "code": 1002, "fclass": "town", "population": 15000, "name": "Mulleriyawa" }, "geometry": { "type": "Point", "coordinates": [ 79.9405074, 6.9272771 ] } },
{ "type": "Feature", "properties": { "osm_id": "666072119", "code": 1003, "fclass": "village", "population": 5000, "name": "Malapalla" }, "geometry": { "type": "Point", "coordinates": [ 79.9713029, 6.8446676 ] } },
{ "type": "Feature", "properties": { "osm_id": "667362617", "code": 1003, "fclass": "village", "population": 5000, "name": "Kahanthota" }, "geometry": { "type": "Point", "coordinates": [ 79.971732, 6.8995902 ] } },
{ "type": "Feature", "properties": { "osm_id": "667505795", "code": 1003, "fclass": "village", "population": 1000, "name": "Wathurugama" }, "geometry": { "type": "Point", "coordinates": [ 80.1066802, 7.0534629 ] } },
{ "type": "Feature", "properties": { "osm_id": "668030147", "code": 1010, "fclass": "suburb", "population": 10000, "name": "Mirihana" }, "geometry": { "type": "Point", "coordinates": [ 79.9010614, 6.875335 ] } },
{ "type": "Feature", "properties": { "osm_id": "668032680", "code": 1010, "fclass": "suburb", "population": 10000, "name": "Madiwela" }, "geometry": { "type": "Point", "coordinates": [ 79.9218458, 6.8790077 ] } },
{ "type": "Feature", "properties": { "osm_id": "668032681", "code": 1003, "fclass": "village", "population": 5000, "name": "Thalapathpitiya" }, "geometry": { "type": "Point", "coordinates": [ 79.9158906, 6.8674092 ] } },
{ "type": "Feature", "properties": { "osm_id": "668032949", "code": 1010, "fclass": "suburb", "population": 10000, "name": "Ethul Kotte" }, "geometry": { "type": "Point", "coordinates": [ 79.906669, 6.903882 ] } },
{ "type": "Feature", "properties": { "osm_id": "668962092", "code": 1010, "fclass": "suburb", "population": 31300, "name": "Peliyagoda" }, "geometry": { "type": "Point", "coordinates": [ 79.8818947, 6.9633651 ] } },
{ "type": "Feature", "properties": { "osm_id": "670836047", "code": 1003, "fclass": "village", "population": 5000, "name": "Pamunuwa" }, "geometry": { "type": "Point", "coordinates": [ 79.9288897, 6.8491934 ] } },
{ "type": "Feature", "properties": { "osm_id": "672187152", "code": 1003, "fclass": "village", "population": 5000, "name": "Thalangama" }, "geometry": { "type": "Point", "coordinates": [ 79.9263326, 6.9060361 ] } },
{ "type": "Feature", "properties": { "osm_id": "696486183", "code": 1003, "fclass": "village", "population": 5000, "name": "Sedawatta" }, "geometry": { "type": "Point", "coordinates": [ 79.8788038, 6.9531713 ] } },
{ "type": "Feature", "properties": { "osm_id": "696497075", "code": 1003, "fclass": "village", "population": 5000, "name": "Grandpass" }, "geometry": { "type": "Point", "coordinates": [ 79.8866482, 6.9479501 ] } },
{ "type": "Feature", "properties": { "osm_id": "696519958", "code": 1002, "fclass": "town", "population": 10000, "name": "Wellampitiya" }, "geometry": { "type": "Point", "coordinates": [ 79.8962142, 6.9372438 ] } },
{ "type": "Feature", "properties": { "osm_id": "803792646", "code": 1002, "fclass": "town", "population": 20000, "name": "Point Pedro" }, "geometry": { "type": "Point", "coordinates": [ 80.2361837, 9.8241007 ] } },
{ "type": "Feature", "properties": { "osm_id": "904968167", "code": 1003, "fclass": "village", "population": 5000, "name": "Makumbura" }, "geometry": { "type": "Point", "coordinates": [ 79.9726949, 6.8392272 ] } },
{ "type": "Feature", "properties": { "osm_id": "917948834", "code": 1002, "fclass": "town", "population": 20000, "name": "Kataragama" }, "geometry": { "type": "Point", "coordinates": [ 81.3324423, 6.4135586 ] } },
{ "type": "Feature", "properties": { "osm_id": "969659938", "code": 1002, "fclass": "town", "population": 15000, "name": "Agalawatta" }, "geometry": { "type": "Point", "coordinates": [ 80.157362, 6.5423445 ] } },
{ "type": "Feature", "properties": { "osm_id": "1093751366", "code": 1003, "fclass": "village", "population": 5000, "name": "Thalagaha" }, "geometry": { "type": "Point", "coordinates": [ 80.2484115, 6.0780651 ] } },
{ "type": "Feature", "properties": { "osm_id": "1093774247", "code": 1003, "fclass": "village", "population": 10000, "name": "Yatalamatta" }, "geometry": { "type": "Point", "coordinates": [ 80.2798995, 6.1631946 ] } },
{ "type": "Feature", "properties": { "osm_id": "1093799347", "code": 1002, "fclass": "town", "population": 5000, "name": "Pitabeddara" }, "geometry": { "type": "Point", "coordinates": [ 80.4740497, 6.2011428 ] } },
{ "type": "Feature", "properties": { "osm_id": "1135422214", "code": 1002, "fclass": "town", "population": 10000, "name": "Siyambalanduwa" }, "geometry": { "type": "Point", "coordinates": [ 81.5592089, 6.9064021 ] } },
{ "type": "Feature", "properties": { "osm_id": "1135433343", "code": 1001, "fclass": "city", "population": 110000, "name": "Moneragala" }, "geometry": { "type": "Point", "coordinates": [ 81.3507069, 6.8725497 ] } },
{ "type": "Feature", "properties": { "osm_id": "1135479950", "code": 1003, "fclass": "village", "population": 5000, "name": "Dambagalla" }, "geometry": { "type": "Point", "coordinates": [ 81.3684596, 6.9521479 ] } },
{ "type": "Feature", "properties": { "osm_id": "1150415971", "code": 1003, "fclass": "village", "population": 5000, "name": "Labugama" }, "geometry": { "type": "Point", "coordinates": [ 80.174194, 6.8584184 ] } },
{ "type": "Feature", "properties": { "osm_id": "1150497671", "code": 1002, "fclass": "town", "population": 5000, "name": "Kithulgala" }, "geometry": { "type": "Point", "coordinates": [ 80.4084927, 6.9978725 ] } },
{ "type": "Feature", "properties": { "osm_id": "1150550162", "code": 1003, "fclass": "village", "population": 5000, "name": "Kalpitiya" }, "geometry": { "type": "Point", "coordinates": [ 79.7661508, 8.2368062 ] } },
{ "type": "Feature", "properties": { "osm_id": "1156534098", "code": 1002, "fclass": "town", "population": 15000, "name": "Wattegama" }, "geometry": { "type": "Point", "coordinates": [ 80.6825933, 7.3513246 ] } },
{ "type": "Feature", "properties": { "osm_id": "1157624885", "code": 1003, "fclass": "village", "population": 1000, "name": "Elkaduwa" }, "geometry": { "type": "Point", "coordinates": [ 80.6831227, 7.4168658 ] } },
{ "type": "Feature", "properties": { "osm_id": "1157658023", "code": 1003, "fclass": "village", "population": 5000, "name": "Kandenuwara" }, "geometry": { "type": "Point", "coordinates": [ 80.6823547, 7.4539936 ] } },
{ "type": "Feature", "properties": { "osm_id": "1164665767", "code": 1004, "fclass": "hamlet", "population": 500, "name": "Hunasgiriya" }, "geometry": { "type": "Point", "coordinates": [ 80.692797, 7.4002621 ] } },
{ "type": "Feature", "properties": { "osm_id": "1175899378", "code": 1002, "fclass": "town", "population": 5000, "name": "Ukuwela" }, "geometry": { "type": "Point", "coordinates": [ 80.6331832, 7.4212501 ] } },
{ "type": "Feature", "properties": { "osm_id": "1175900715", "code": 1003, "fclass": "village", "population": 5000, "name": "Hindagala" }, "geometry": { "type": "Point", "coordinates": [ 80.6012335, 7.2386673 ] } },
{ "type": "Feature", "properties": { "osm_id": "1181395633", "code": 1003, "fclass": "village", "population": 5000, "name": "Denipitiya" }, "geometry": { "type": "Point", "coordinates": [ 80.4523557, 5.983201 ] } },
{ "type": "Feature", "properties": { "osm_id": "1183726317", "code": 1002, "fclass": "town", "population": 5000, "name": "Sooriyawewa" }, "geometry": { "type": "Point", "coordinates": [ 81.0021826, 6.3081836 ] } },
{ "type": "Feature", "properties": { "osm_id": "1190564935", "code": 1003, "fclass": "village", "population": 5000, "name": "Norton Bridge" }, "geometry": { "type": "Point", "coordinates": [ 80.5206586, 6.9153603 ] } },
{ "type": "Feature", "properties": { "osm_id": "1223037744", "code": 1003, "fclass": "village", "population": 5000, "name": "Kandakuli" }, "geometry": { "type": "Point", "coordinates": [ 79.7262601, 8.2141932 ] } },
{ "type": "Feature", "properties": { "osm_id": "1231840776", "code": 1010, "fclass": "suburb", "population": 5000, "name": "Telijjawila" }, "geometry": { "type": "Point", "coordinates": [ 80.4974649, 6.025379 ] } },
{ "type": "Feature", "properties": { "osm_id": "1237275871", "code": 1003, "fclass": "village", "population": 10000, "name": "Galkulama" }, "geometry": { "type": "Point", "coordinates": [ 80.4998012, 8.2751604 ] } },
{ "type": "Feature", "properties": { "osm_id": "1239429314", "code": 1002, "fclass": "town", "population": 5000, "name": "Bamunaakotuwa" }, "geometry": { "type": "Point", "coordinates": [ 80.2489255, 7.5716162 ] } },
{ "type": "Feature", "properties": { "osm_id": "1239442633", "code": 1003, "fclass": "village", "population": 5000, "name": "Dampelessa" }, "geometry": { "type": "Point", "coordinates": [ 80.2105517, 7.4128518 ] } },
{ "type": "Feature", "properties": { "osm_id": "1239482971", "code": 1003, "fclass": "village", "population": 5000, "name": "Kalugamuwa" }, "geometry": { "type": "Point", "coordinates": [ 80.2580097, 7.4490513 ] } },
{ "type": "Feature", "properties": { "osm_id": "1239560146", "code": 1002, "fclass": "town", "population": 20000, "name": "Alawwa" }, "geometry": { "type": "Point", "coordinates": [ 80.2392415, 7.2940156 ] } },
{ "type": "Feature", "properties": { "osm_id": "1239591372", "code": 1002, "fclass": "town", "population": 15000, "name": "Padeniya" }, "geometry": { "type": "Point", "coordinates": [ 80.2219283, 7.6555886 ] } },
{ "type": "Feature", "properties": { "osm_id": "1239651747", "code": 1003, "fclass": "village", "population": 10000, "name": "Daladagama" }, "geometry": { "type": "Point", "coordinates": [ 80.2502341, 7.8214845 ] } },
{ "type": "Feature", "properties": { "osm_id": "1239690493", "code": 1002, "fclass": "town", "population": 10000, "name": "Maho" }, "geometry": { "type": "Point", "coordinates": [ 80.273567, 7.8239143 ] } },
{ "type": "Feature", "properties": { "osm_id": "1241525013", "code": 1002, "fclass": "town", "population": 5000, "name": "Giritale" }, "geometry": { "type": "Point", "coordinates": [ 80.9244422, 8.000262 ] } },
{ "type": "Feature", "properties": { "osm_id": "1241588299", "code": 1003, "fclass": "village", "population": 5000, "name": "Ranpokunagama" }, "geometry": { "type": "Point", "coordinates": [ 80.1099421, 7.136873 ] } },
{ "type": "Feature", "properties": { "osm_id": "1241639671", "code": 1003, "fclass": "village", "population": 5000, "name": "Naiwala" }, "geometry": { "type": "Point", "coordinates": [ 80.0309, 7.1593736 ] } },
{ "type": "Feature", "properties": { "osm_id": "1241668462", "code": 1003, "fclass": "village", "population": 5000, "name": "Kalagedihena" }, "geometry": { "type": "Point", "coordinates": [ 80.0597034, 7.1192313 ] } },
{ "type": "Feature", "properties": { "osm_id": "1242638983", "code": 1003, "fclass": "village", "population": 5000, "name": "Walahanduwa" }, "geometry": { "type": "Point", "coordinates": [ 80.2547098, 6.0504945 ] } },
{ "type": "Feature", "properties": { "osm_id": "1242646684", "code": 1003, "fclass": "village", "population": 5000, "name": "Haliwala" }, "geometry": { "type": "Point", "coordinates": [ 80.2434977, 6.0461098 ] } },
{ "type": "Feature", "properties": { "osm_id": "1242646685", "code": 1003, "fclass": "village", "population": 5000, "name": "Akmeemana" }, "geometry": { "type": "Point", "coordinates": [ 80.2609968, 6.0695562 ] } },
{ "type": "Feature", "properties": { "osm_id": "1242694029", "code": 1003, "fclass": "village", "population": 5000, "name": "Potankadu" }, "geometry": { "type": "Point", "coordinates": [ 81.0083665, 8.3476138 ] } },
{ "type": "Feature", "properties": { "osm_id": "1242700528", "code": 1003, "fclass": "village", "population": 5000, "name": "Kanniya" }, "geometry": { "type": "Point", "coordinates": [ 81.1671242, 8.6184026 ] } },
{ "type": "Feature", "properties": { "osm_id": "1242724515", "code": 1003, "fclass": "village", "population": 5000, "name": "Kinniya" }, "geometry": { "type": "Point", "coordinates": [ 81.1912179, 8.5016494 ] } },
{ "type": "Feature", "properties": { "osm_id": "1242793101", "code": 1003, "fclass": "village", "population": 5000, "name": "Uppuveli" }, "geometry": { "type": "Point", "coordinates": [ 81.2178369, 8.6005237 ] } },
{ "type": "Feature", "properties": { "osm_id": "1245022182", "code": 1003, "fclass": "village", "population": 1000, "name": "Ponnalai" }, "geometry": { "type": "Point", "coordinates": [ 79.9174453, 9.7507128 ] } },
{ "type": "Feature", "properties": { "osm_id": "1245037503", "code": 1003, "fclass": "village", "population": 5000, "name": "Vallipuram" }, "geometry": { "type": "Point", "coordinates": [ 80.2426229, 9.7884388 ] } },
{ "type": "Feature", "properties": { "osm_id": "1245043181", "code": 1002, "fclass": "town", "population": 41400, "name": "Chavakachcheri" }, "geometry": { "type": "Point", "coordinates": [ 80.1643076, 9.6579014 ] } },
{ "type": "Feature", "properties": { "osm_id": "1245043224", "code": 1002, "fclass": "town", "population": 5000, "name": "Navatkuli" }, "geometry": { "type": "Point", "coordinates": [ 80.0831893, 9.6626751 ] } },
{ "type": "Feature", "properties": { "osm_id": "1252523233", "code": 1002, "fclass": "town", "population": 15000, "name": "Rawathawatta" }, "geometry": { "type": "Point", "coordinates": [ 79.8850579, 6.7880501 ] } },
{ "type": "Feature", "properties": { "osm_id": "1261568432", "code": 1003, "fclass": "village", "population": 6000, "name": "Badalgama" }, "geometry": { "type": "Point", "coordinates": [ 79.9855834, 7.2864141 ] } },
{ "type": "Feature", "properties": { "osm_id": "1268352826", "code": 1004, "fclass": "hamlet", "population": 500, "name": "Dalupotha" }, "geometry": { "type": "Point", "coordinates": [ 79.8517467, 7.2279307 ] } },
{ "type": "Feature", "properties": { "osm_id": "1269983060", "code": 1002, "fclass": "town", "population": 15000, "name": "Dungalpitiya" }, "geometry": { "type": "Point", "coordinates": [ 79.8320301, 7.14691 ] } },
{ "type": "Feature", "properties": { "osm_id": "1269983065", "code": 1002, "fclass": "town", "population": 5000, "name": "Kapungoda" }, "geometry": { "type": "Point", "coordinates": [ 79.841015, 7.1189172 ] } },
{ "type": "Feature", "properties": { "osm_id": "1269988029", "code": 1003, "fclass": "village", "population": 5000, "name": "Nugape" }, "geometry": { "type": "Point", "coordinates": [ 79.8657444, 7.0491582 ] } },
{ "type": "Feature", "properties": { "osm_id": "1269994494", "code": 1003, "fclass": "village", "population": 5000, "name": "Kurana" }, "geometry": { "type": "Point", "coordinates": [ 79.8564854, 7.194552 ] } },
{ "type": "Feature", "properties": { "osm_id": "1278095689", "code": 1004, "fclass": "hamlet", "population": 15000, "name": "Weligampitiya" }, "geometry": { "type": "Point", "coordinates": [ 79.8947761, 7.0692495 ] } },
{ "type": "Feature", "properties": { "osm_id": "1278101167", "code": 1004, "fclass": "hamlet", "population": 5000, "name": "Nadagamuwa" }, "geometry": { "type": "Point", "coordinates": [ 79.9490063, 7.1228292 ] } },
{ "type": "Feature", "properties": { "osm_id": "1278101263", "code": 1003, "fclass": "village", "population": 5000, "name": "Niwandama" }, "geometry": { "type": "Point", "coordinates": [ 79.9332251, 7.0888793 ] } },
{ "type": "Feature", "properties": { "osm_id": "1278101317", "code": 1003, "fclass": "village", "population": 5000, "name": "Makawita" }, "geometry": { "type": "Point", "coordinates": [ 79.9348318, 7.1043608 ] } },
{ "type": "Feature", "properties": { "osm_id": "1278101424", "code": 1003, "fclass": "village", "population": 5000, "name": "Batapotha" }, "geometry": { "type": "Point", "coordinates": [ 79.956178, 7.1211745 ] } },
{ "type": "Feature", "properties": { "osm_id": "1292892060", "code": 1003, "fclass": "village", "population": 5000, "name": "Bollatha" }, "geometry": { "type": "Point", "coordinates": [ 79.9320835, 7.0632029 ] } },
{ "type": "Feature", "properties": { "osm_id": "1292892090", "code": 1003, "fclass": "village", "population": 5000, "name": "Ihala Imbulgoda" }, "geometry": { "type": "Point", "coordinates": [ 79.9929054, 7.0421484 ] } },
{ "type": "Feature", "properties": { "osm_id": "1292892112", "code": 1004, "fclass": "hamlet", "population": 500, "name": "Mei Gaha Junction" }, "geometry": { "type": "Point", "coordinates": [ 79.929891, 7.0591812 ] } },
{ "type": "Feature", "properties": { "osm_id": "1292892213", "code": 1003, "fclass": "village", "population": 5000, "name": "Kirillawala" }, "geometry": { "type": "Point", "coordinates": [ 79.9902341, 7.0346833 ] } },
{ "type": "Feature", "properties": { "osm_id": "1306560765", "code": 1003, "fclass": "village", "population": 5000, "name": "Poonugala" }, "geometry": { "type": "Point", "coordinates": [ 80.3642018, 7.0595399 ] } },
{ "type": "Feature", "properties": { "osm_id": "1306560769", "code": 1003, "fclass": "village", "population": 5000, "name": "Gonagamuwa" }, "geometry": { "type": "Point", "coordinates": [ 80.3661169, 7.0267737 ] } },
{ "type": "Feature", "properties": { "osm_id": "1306560772", "code": 1004, "fclass": "hamlet", "population": 500, "name": "Wewelthalawa" }, "geometry": { "type": "Point", "coordinates": [ 80.3855737, 7.0511922 ] } },
{ "type": "Feature", "properties": { "osm_id": "1306560777", "code": 1003, "fclass": "village", "population": 5000, "name": "Malalpola" }, "geometry": { "type": "Point", "coordinates": [ 80.3345902, 7.061712 ] } },
{ "type": "Feature", "properties": { "osm_id": "1306560780", "code": 1004, "fclass": "hamlet", "population": 500, "name": "Halgolla" }, "geometry": { "type": "Point", "coordinates": [ 80.3669484, 7.0406296 ] } },
{ "type": "Feature", "properties": { "osm_id": "1370722181", "code": 1003, "fclass": "village", "population": 5000, "name": "Delpe" }, "geometry": { "type": "Point", "coordinates": [ 79.9352442, 7.0211611 ] } },
{ "type": "Feature", "properties": { "osm_id": "1400410588", "code": 1002, "fclass": "town", "population": 26700, "name": "Chilaw" }, "geometry": { "type": "Point", "coordinates": [ 79.7956755, 7.5765074 ] } },
{ "type": "Feature", "properties": { "osm_id": "1400420567", "code": 1003, "fclass": "village", "population": 5000, "name": "Kakkapalliya Junction" }, "geometry": { "type": "Point", "coordinates": [ 79.8215796, 7.5299613 ] } },
{ "type": "Feature", "properties": { "osm_id": "1400420569", "code": 1003, "fclass": "village", "population": 5000, "name": "Mahawewa" }, "geometry": { "type": "Point", "coordinates": [ 79.8283059, 7.4539599 ] } },
{ "type": "Feature", "properties": { "osm_id": "1400420570", "code": 1003, "fclass": "village", "population": 5000, "name": "Mundalama" }, "geometry": { "type": "Point", "coordinates": [ 79.8272454, 7.7880299 ] } },
{ "type": "Feature", "properties": { "osm_id": "1464686517", "code": 1010, "fclass": "suburb", "population": 15000, "name": "Koswatta" }, "geometry": { "type": "Point", "coordinates": [ 79.8972131, 7.3708832 ] } },
{ "type": "Feature", "properties": { "osm_id": "1464688730", "code": 1003, "fclass": "village", "population": 5000, "name": "Bothalegama" }, "geometry": { "type": "Point", "coordinates": [ 79.8805094, 7.3641919 ] } },
{ "type": "Feature", "properties": { "osm_id": "1466614123", "code": 1003, "fclass": "village", "population": 2500, "name": "Kirimetiyana" }, "geometry": { "type": "Point", "coordinates": [ 79.8858777, 7.3536993 ] } },
{ "type": "Feature", "properties": { "osm_id": "1473109327", "code": 1003, "fclass": "village", "population": 0, "name": "Koswatta" }, "geometry": { "type": "Point", "coordinates": [ 79.8925803, 7.3659684 ] } },
{ "type": "Feature", "properties": { "osm_id": "1478756012", "code": 1004, "fclass": "hamlet", "population": 500, "name": "Megahawella NWP" }, "geometry": { "type": "Point", "coordinates": [ 79.9038177, 7.3793912 ] } },
{ "type": "Feature", "properties": { "osm_id": "1494019080", "code": 1002, "fclass": "town", "population": 15000, "name": "Kaithady" }, "geometry": { "type": "Point", "coordinates": [ 80.1036274, 9.6877397 ] } },
{ "type": "Feature", "properties": { "osm_id": "1494019659", "code": 1003, "fclass": "village", "population": 5000, "name": "Madduvil" }, "geometry": { "type": "Point", "coordinates": [ 80.1490346, 9.6888047 ] } },
{ "type": "Feature", "properties": { "osm_id": "1494022576", "code": 1003, "fclass": "village", "population": 7000, "name": "Vaddukkodai" }, "geometry": { "type": "Point", "coordinates": [ 79.9487867, 9.7281116 ] } },
{ "type": "Feature", "properties": { "osm_id": "1494022611", "code": 1003, "fclass": "village", "population": 3000, "name": "Arali" }, "geometry": { "type": "Point", "coordinates": [ 79.9488425, 9.7091445 ] } },
{ "type": "Feature", "properties": { "osm_id": "1529230874", "code": 1003, "fclass": "village", "population": 5000, "name": "Naadugala" }, "geometry": { "type": "Point", "coordinates": [ 80.5488308, 5.9827303 ] } },
{ "type": "Feature", "properties": { "osm_id": "1529230884", "code": 1003, "fclass": "village", "population": 5000, "name": "Puhulwella" }, "geometry": { "type": "Point", "coordinates": [ 80.618578, 6.0406066 ] } },
{ "type": "Feature", "properties": { "osm_id": "1529264246", "code": 1002, "fclass": "town", "population": 15000, "name": "Katukurunda" }, "geometry": { "type": "Point", "coordinates": [ 79.9699876, 6.5624083 ] } },
{ "type": "Feature", "properties": { "osm_id": "1533923903", "code": 1003, "fclass": "village", "population": 5000, "name": "Kawdana" }, "geometry": { "type": "Point", "coordinates": [ 79.8747511, 6.8445317 ] } },
{ "type": "Feature", "properties": { "osm_id": "1534183371", "code": 1002, "fclass": "town", "population": 10000, "name": "Ambanpola" }, "geometry": { "type": "Point", "coordinates": [ 80.239316, 7.9196719 ] } },
{ "type": "Feature", "properties": { "osm_id": "1535402500", "code": 1004, "fclass": "hamlet", "population": 500, "name": "Kelimune NWP" }, "geometry": { "type": "Point", "coordinates": [ 80.2939224, 7.5653669 ] } },
{ "type": "Feature", "properties": { "osm_id": "1535403961", "code": 1004, "fclass": "hamlet", "population": 500, "name": "Imiyangoda NWP" }, "geometry": { "type": "Point", "coordinates": [ 80.242107, 7.5861546 ] } },
{ "type": "Feature", "properties": { "osm_id": "1535410542", "code": 1003, "fclass": "village", "population": 500, "name": "Werella" }, "geometry": { "type": "Point", "coordinates": [ 80.2322102, 7.6740048 ] } },
{ "type": "Feature", "properties": { "osm_id": "1535431768", "code": 1003, "fclass": "village", "population": 500, "name": "Serumunawewa" }, "geometry": { "type": "Point", "coordinates": [ 80.2400637, 7.8648832 ] } },
{ "type": "Feature", "properties": { "osm_id": "1535455763", "code": 1003, "fclass": "village", "population": 500, "name": "Kaasikote" }, "geometry": { "type": "Point", "coordinates": [ 80.2451354, 7.9404082 ] } },
{ "type": "Feature", "properties": { "osm_id": "1535455787", "code": 1003, "fclass": "village", "population": 500, "name": "Mahagalkadawala" }, "geometry": { "type": "Point", "coordinates": [ 80.2821909, 8.0599555 ] } },
{ "type": "Feature", "properties": { "osm_id": "1536641429", "code": 1003, "fclass": "village", "population": 500, "name": "Katupitigama" }, "geometry": { "type": "Point", "coordinates": [ 80.2154327, 7.89283 ] } },
{ "type": "Feature", "properties": { "osm_id": "1536641432", "code": 1003, "fclass": "village", "population": 500, "name": "Udadiwulwewa" }, "geometry": { "type": "Point", "coordinates": [ 80.1943159, 7.9191458 ] } },
{ "type": "Feature", "properties": { "osm_id": "1536641434", "code": 1003, "fclass": "village", "population": 500, "name": "Walaliya" }, "geometry": { "type": "Point", "coordinates": [ 80.2109671, 7.8638842 ] } },
{ "type": "Feature", "properties": { "osm_id": "1536641439", "code": 1003, "fclass": "village", "population": 500, "name": "Bakmeewewa" }, "geometry": { "type": "Point", "coordinates": [ 80.1801185, 7.8917832 ] } },
{ "type": "Feature", "properties": { "osm_id": "1536648877", "code": 1003, "fclass": "village", "population": 500, "name": "Uduweriya" }, "geometry": { "type": "Point", "coordinates": [ 80.2451277, 7.8507904 ] } },
{ "type": "Feature", "properties": { "osm_id": "1536648880", "code": 1003, "fclass": "village", "population": 500, "name": "Dethewa" }, "geometry": { "type": "Point", "coordinates": [ 80.2483892, 7.8933013 ] } },
{ "type": "Feature", "properties": { "osm_id": "1536648881", "code": 1002, "fclass": "town", "population": 15000, "name": "Nikaweratiya" }, "geometry": { "type": "Point", "coordinates": [ 80.1157229, 7.750383 ] } },
{ "type": "Feature", "properties": { "osm_id": "1536648882", "code": 1003, "fclass": "village", "population": 500, "name": "Nagala" }, "geometry": { "type": "Point", "coordinates": [ 80.1934576, 7.8375261 ] } },
{ "type": "Feature", "properties": { "osm_id": "1536648886", "code": 1003, "fclass": "village", "population": 500, "name": "Ihakolagama" }, "geometry": { "type": "Point", "coordinates": [ 80.1447903, 7.7687081 ] } },
{ "type": "Feature", "properties": { "osm_id": "1536665906", "code": 1004, "fclass": "hamlet", "population": 500, "name": "Elawaka" }, "geometry": { "type": "Point", "coordinates": [ 80.1381397, 7.7238355 ] } },
{ "type": "Feature", "properties": { "osm_id": "1536677008", "code": 1004, "fclass": "hamlet", "population": 1000, "name": "Omaragolla" }, "geometry": { "type": "Point", "coordinates": [ 80.5418444, 7.7016491 ] } },
{ "type": "Feature", "properties": { "osm_id": "1536677011", "code": 1004, "fclass": "hamlet", "population": 1000, "name": "Beligomuwa" }, "geometry": { "type": "Point", "coordinates": [ 80.5496631, 7.7275824 ] } },
{ "type": "Feature", "properties": { "osm_id": "1536677014", "code": 1004, "fclass": "hamlet", "population": 1000, "name": "Weralanda" }, "geometry": { "type": "Point", "coordinates": [ 80.5506179, 7.7179076 ] } },
{ "type": "Feature", "properties": { "osm_id": "1536695366", "code": 1002, "fclass": "town", "population": 1000, "name": "Ibbagamuwa" }, "geometry": { "type": "Point", "coordinates": [ 80.4496417, 7.5479128 ] } },
{ "type": "Feature", "properties": { "osm_id": "1536695369", "code": 1002, "fclass": "town", "population": 5000, "name": "Mælsiripura" }, "geometry": { "type": "Point", "coordinates": [ 80.5093145, 7.6427647 ] } },
{ "type": "Feature", "properties": { "osm_id": "1545216235", "code": 1050, "fclass": "locality", "population": 1000, "name": "Pinnaduwa Interchange" }, "geometry": { "type": "Point", "coordinates": [ 80.2642681, 6.0681239 ] } },
{ "type": "Feature", "properties": { "osm_id": "1578188918", "code": 1004, "fclass": "hamlet", "population": 0, "name": "Dodangoda Interchange" }, "geometry": { "type": "Point", "coordinates": [ 80.0433432, 6.5418156 ] } },
{ "type": "Feature", "properties": { "osm_id": "1578188931", "code": 1050, "fclass": "locality", "population": 1000, "name": "Kurundugahahetekma Interchange" }, "geometry": { "type": "Point", "coordinates": [ 80.1396954, 6.2712978 ] } },
{ "type": "Feature", "properties": { "osm_id": "1578215204", "code": 1003, "fclass": "village", "population": 1000, "name": "Baddegama" }, "geometry": { "type": "Point", "coordinates": [ 80.1779163, 6.1724812 ] } },
{ "type": "Feature", "properties": { "osm_id": "1606175319", "code": 1002, "fclass": "town", "population": 37000, "name": "Bentota" }, "geometry": { "type": "Point", "coordinates": [ 79.9978544, 6.4215276 ] } },
{ "type": "Feature", "properties": { "osm_id": "1614298232", "code": 1002, "fclass": "town", "population": 15000, "name": "Aluthgama" }, "geometry": { "type": "Point", "coordinates": [ 79.9988986, 6.4326494 ] } },
{ "type": "Feature", "properties": { "osm_id": "1639373029", "code": 1002, "fclass": "town", "population": 15000, "name": "Beliatte" }, "geometry": { "type": "Point", "coordinates": [ 80.7347526, 6.0492655 ] } },
{ "type": "Feature", "properties": { "osm_id": "1650277092", "code": 1010, "fclass": "suburb", "population": 10000, "name": "Izzadeen Town" }, "geometry": { "type": "Point", "coordinates": [ 80.5264896, 5.9543879 ] } },
{ "type": "Feature", "properties": { "osm_id": "1660460646", "code": 1050, "fclass": "locality", "population": 0, "name": "Welipenna Interchange" }, "geometry": { "type": "Point", "coordinates": [ 80.0890188, 6.4526517 ] } },
{ "type": "Feature", "properties": { "osm_id": "1662568250", "code": 1003, "fclass": "village", "population": 5000, "name": "Angunakolapelessa" }, "geometry": { "type": "Point", "coordinates": [ 81.0264399, 6.4492224 ] } },
{ "type": "Feature", "properties": { "osm_id": "1700567438", "code": 1003, "fclass": "village", "population": 5000, "name": "Turkish Village Midigama" }, "geometry": { "type": "Point", "coordinates": [ 80.3994815, 5.9785353 ] } },
{ "type": "Feature", "properties": { "osm_id": "1706426811", "code": 1003, "fclass": "village", "population": 5000, "name": "Siruppiddy" }, "geometry": { "type": "Point", "coordinates": [ 80.0941915, 9.7331734 ] } },
{ "type": "Feature", "properties": { "osm_id": "1712640599", "code": 1003, "fclass": "village", "population": 5000, "name": "Kalupahana" }, "geometry": { "type": "Point", "coordinates": [ 80.8495244, 6.7660433 ] } },
{ "type": "Feature", "properties": { "osm_id": "1712897497", "code": 1004, "fclass": "hamlet", "population": 5000, "name": "Walhaputhenna" }, "geometry": { "type": "Point", "coordinates": [ 80.8702756, 6.7644154 ] } },
{ "type": "Feature", "properties": { "osm_id": "1720491052", "code": 1002, "fclass": "town", "population": 15000, "name": "Badalkumbura" }, "geometry": { "type": "Point", "coordinates": [ 81.2359813, 6.8952411 ] } },
{ "type": "Feature", "properties": { "osm_id": "1720491067", "code": 1002, "fclass": "town", "population": 15000, "name": "Buttala" }, "geometry": { "type": "Point", "coordinates": [ 81.2465378, 6.7619728 ] } },
{ "type": "Feature", "properties": { "osm_id": "1721048205", "code": 1003, "fclass": "village", "population": 5000, "name": "Buduruwagala" }, "geometry": { "type": "Point", "coordinates": [ 81.107521, 6.6901818 ] } },
{ "type": "Feature", "properties": { "osm_id": "1722822878", "code": 1003, "fclass": "village", "population": 5000, "name": "Kumbukkana" }, "geometry": { "type": "Point", "coordinates": [ 81.2979217, 6.8078952 ] } },
{ "type": "Feature", "properties": { "osm_id": "1722822879", "code": 1003, "fclass": "village", "population": 5000, "name": "Maligawila" }, "geometry": { "type": "Point", "coordinates": [ 81.3537594, 6.7252077 ] } },
{ "type": "Feature", "properties": { "osm_id": "1723290057", "code": 1002, "fclass": "town", "population": 15000, "name": "Udawalawe" }, "geometry": { "type": "Point", "coordinates": [ 80.8172144, 6.4241386 ] } },
{ "type": "Feature", "properties": { "osm_id": "1723302619", "code": 1002, "fclass": "town", "population": 15000, "name": "Madampe" }, "geometry": { "type": "Point", "coordinates": [ 80.5931448, 6.5339401 ] } },
{ "type": "Feature", "properties": { "osm_id": "1723302622", "code": 1003, "fclass": "village", "population": 1500, "name": "Tiruwanaketiya" }, "geometry": { "type": "Point", "coordinates": [ 80.4317733, 6.6653628 ] } },
{ "type": "Feature", "properties": { "osm_id": "1723384697", "code": 1002, "fclass": "town", "population": 15000, "name": "Tissamaharama" }, "geometry": { "type": "Point", "coordinates": [ 81.2892814, 6.2770724 ] } },
{ "type": "Feature", "properties": { "osm_id": "1724997149", "code": 1004, "fclass": "hamlet", "population": 500, "name": "Godawela" }, "geometry": { "type": "Point", "coordinates": [ 80.6089735, 7.1938467 ] } },
{ "type": "Feature", "properties": { "osm_id": "1725053934", "code": 1003, "fclass": "village", "population": 5000, "name": "Thandiyadi" }, "geometry": { "type": "Point", "coordinates": [ 81.8345535, 7.0605581 ] } },
{ "type": "Feature", "properties": { "osm_id": "1725053935", "code": 1003, "fclass": "village", "population": 5000, "name": "Thirukkovil" }, "geometry": { "type": "Point", "coordinates": [ 81.8517011, 7.11554 ] } },
{ "type": "Feature", "properties": { "osm_id": "1725061614", "code": 1003, "fclass": "village", "population": 5000, "name": "Kalkudah" }, "geometry": { "type": "Point", "coordinates": [ 81.5603565, 7.9156649 ] } },
{ "type": "Feature", "properties": { "osm_id": "1725061619", "code": 1004, "fclass": "hamlet", "population": 500, "name": "Maruthamunai" }, "geometry": { "type": "Point", "coordinates": [ 81.8129665, 7.4343584 ] } },
{ "type": "Feature", "properties": { "osm_id": "1727645733", "code": 1002, "fclass": "town", "population": 5000, "name": "Rattota" }, "geometry": { "type": "Point", "coordinates": [ 80.677573, 7.5206092 ] } },
{ "type": "Feature", "properties": { "osm_id": "1728308112", "code": 1003, "fclass": "village", "population": 5000, "name": "Rotawewa" }, "geometry": { "type": "Point", "coordinates": [ 80.9149848, 8.5953845 ] } },
{ "type": "Feature", "properties": { "osm_id": "1729302889", "code": 1003, "fclass": "village", "population": 5000, "name": "Handapanagala" }, "geometry": { "type": "Point", "coordinates": [ 81.1309067, 6.6568558 ] } },
{ "type": "Feature", "properties": { "osm_id": "1729302890", "code": 1003, "fclass": "village", "population": 5000, "name": "Uva Kuda Oya" }, "geometry": { "type": "Point", "coordinates": [ 81.1242206, 6.5234139 ] } },
{ "type": "Feature", "properties": { "osm_id": "1729302900", "code": 1003, "fclass": "village", "population": 5000, "name": "Nugayaya" }, "geometry": { "type": "Point", "coordinates": [ 81.1087149, 6.7049289 ] } },
{ "type": "Feature", "properties": { "osm_id": "1729302903", "code": 1003, "fclass": "village", "population": 5000, "name": "Thelulla" }, "geometry": { "type": "Point", "coordinates": [ 81.1394342, 6.6009078 ] } },
{ "type": "Feature", "properties": { "osm_id": "1729302906", "code": 1003, "fclass": "village", "population": 5000, "name": "Uva Pelwatte" }, "geometry": { "type": "Point", "coordinates": [ 81.1935855, 6.7466664 ] } },
{ "type": "Feature", "properties": { "osm_id": "1729302908", "code": 1003, "fclass": "village", "population": 5000, "name": "Veherayaya" }, "geometry": { "type": "Point", "coordinates": [ 81.1180043, 6.6433348 ] } },
{ "type": "Feature", "properties": { "osm_id": "1729302909", "code": 1003, "fclass": "village", "population": 5000, "name": "Warunagama" }, "geometry": { "type": "Point", "coordinates": [ 81.1341191, 6.7328459 ] } },
{ "type": "Feature", "properties": { "osm_id": "1729302925", "code": 1003, "fclass": "village", "population": 5000, "name": "Yalabowa" }, "geometry": { "type": "Point", "coordinates": [ 81.104213, 6.7202853 ] } },
{ "type": "Feature", "properties": { "osm_id": "1730326811", "code": 1003, "fclass": "village", "population": 5000, "name": "Sinthupuram" }, "geometry": { "type": "Point", "coordinates": [ 79.9532657, 9.7466655 ] } },
{ "type": "Feature", "properties": { "osm_id": "1730339960", "code": 1003, "fclass": "village", "population": 5000, "name": "Kolambage Ara" }, "geometry": { "type": "Point", "coordinates": [ 80.7682555, 6.4339439 ] } },
{ "type": "Feature", "properties": { "osm_id": "1731515014", "code": 1003, "fclass": "village", "population": 500, "name": "Kalladiya" }, "geometry": { "type": "Point", "coordinates": [ 79.8971539, 7.9928315 ] } },
{ "type": "Feature", "properties": { "osm_id": "1731515234", "code": 1002, "fclass": "town", "population": 15000, "name": "Madurankuliya" }, "geometry": { "type": "Point", "coordinates": [ 79.8220149, 7.9053801 ] } },
{ "type": "Feature", "properties": { "osm_id": "1731515457", "code": 1003, "fclass": "village", "population": 1500, "name": "Galkulama" }, "geometry": { "type": "Point", "coordinates": [ 79.9164978, 7.9730199 ] } },
{ "type": "Feature", "properties": { "osm_id": "1731568993", "code": 1002, "fclass": "town", "population": 20000, "name": "Anamaduwa" }, "geometry": { "type": "Point", "coordinates": [ 80.0109366, 7.8776367 ] } },
{ "type": "Feature", "properties": { "osm_id": "1733717462", "code": 1003, "fclass": "village", "population": 5000, "name": "Dedigama" }, "geometry": { "type": "Point", "coordinates": [ 80.2634399, 7.2073472 ] } },
{ "type": "Feature", "properties": { "osm_id": "1733768118", "code": 1002, "fclass": "town", "population": 20000, "name": "Warakapola" }, "geometry": { "type": "Point", "coordinates": [ 80.1965392, 7.2249609 ] } },
{ "type": "Feature", "properties": { "osm_id": "1733768477", "code": 1003, "fclass": "village", "population": 5000, "name": "Mahapallegama" }, "geometry": { "type": "Point", "coordinates": [ 80.26241, 7.1774151 ] } },
{ "type": "Feature", "properties": { "osm_id": "1739426106", "code": 1002, "fclass": "town", "population": 20000, "name": "Wellawaya" }, "geometry": { "type": "Point", "coordinates": [ 81.1018359, 6.7317804 ] } },
{ "type": "Feature", "properties": { "osm_id": "1739955377", "code": 1003, "fclass": "village", "population": 5000, "name": "Seeppukulama" }, "geometry": { "type": "Point", "coordinates": [ 80.5876922, 8.380412 ] } },
{ "type": "Feature", "properties": { "osm_id": "1740742132", "code": 1002, "fclass": "town", "population": 15000, "name": "Horowpotana" }, "geometry": { "type": "Point", "coordinates": [ 80.8321271, 8.5496687 ] } },
{ "type": "Feature", "properties": { "osm_id": "1745481386", "code": 1002, "fclass": "town", "population": 15000, "name": "Dikwella" }, "geometry": { "type": "Point", "coordinates": [ 80.6946513, 5.964618 ] } },
{ "type": "Feature", "properties": { "osm_id": "1745481398", "code": 1003, "fclass": "village", "population": 1000, "name": "Hunnadeniya" }, "geometry": { "type": "Point", "coordinates": [ 80.6555753, 5.962348 ] } },
{ "type": "Feature", "properties": { "osm_id": "1745511873", "code": 1003, "fclass": "village", "population": 5000, "name": "Galge" }, "geometry": { "type": "Point", "coordinates": [ 81.3048517, 6.54039 ] } },
{ "type": "Feature", "properties": { "osm_id": "1745524916", "code": 1002, "fclass": "town", "population": 15000, "name": "Pallebedda" }, "geometry": { "type": "Point", "coordinates": [ 80.7076416, 6.4818813 ] } },
{ "type": "Feature", "properties": { "osm_id": "1745540310", "code": 1003, "fclass": "village", "population": 5000, "name": "Idangoda" }, "geometry": { "type": "Point", "coordinates": [ 80.2785668, 6.7313377 ] } },
{ "type": "Feature", "properties": { "osm_id": "1745540314", "code": 1002, "fclass": "town", "population": 15000, "name": "Kahawatta" }, "geometry": { "type": "Point", "coordinates": [ 80.573265, 6.5831751 ] } },
{ "type": "Feature", "properties": { "osm_id": "1745540317", "code": 1003, "fclass": "village", "population": 5000, "name": "Lellopitiya" }, "geometry": { "type": "Point", "coordinates": [ 80.4825972, 6.6631304 ] } },
{ "type": "Feature", "properties": { "osm_id": "1745548902", "code": 1002, "fclass": "town", "population": 15000, "name": "Ingiriya" }, "geometry": { "type": "Point", "coordinates": [ 80.1766773, 6.7437564 ] } },
{ "type": "Feature", "properties": { "osm_id": "1745548912", "code": 1003, "fclass": "village", "population": 5000, "name": "Poruwadanda" }, "geometry": { "type": "Point", "coordinates": [ 80.119583, 6.7376359 ] } },
{ "type": "Feature", "properties": { "osm_id": "1752796346", "code": 1003, "fclass": "village", "population": 5000, "name": "Ohiya" }, "geometry": { "type": "Point", "coordinates": [ 80.8465729, 6.819676 ] } },
{ "type": "Feature", "properties": { "osm_id": "1778824262", "code": 1010, "fclass": "suburb", "population": 10000, "name": "Walgama Junction" }, "geometry": { "type": "Point", "coordinates": [ 79.9958735, 6.865056 ] } },
{ "type": "Feature", "properties": { "osm_id": "1783925992", "code": 1002, "fclass": "town", "population": 15000, "name": "Hunnasgiriya" }, "geometry": { "type": "Point", "coordinates": [ 80.8518127, 7.2972586 ] } },
{ "type": "Feature", "properties": { "osm_id": "1783976655", "code": 1002, "fclass": "town", "population": 15000, "name": "Mahiyanganaya" }, "geometry": { "type": "Point", "coordinates": [ 80.993126, 7.3401663 ] } },
{ "type": "Feature", "properties": { "osm_id": "1788271749", "code": 1002, "fclass": "town", "population": 15000, "name": "Meegoda" }, "geometry": { "type": "Point", "coordinates": [ 80.0460308, 6.8441085 ] } },
{ "type": "Feature", "properties": { "osm_id": "1788410986", "code": 1002, "fclass": "town", "population": 10000, "name": "Induruwa" }, "geometry": { "type": "Point", "coordinates": [ 80.0105559, 6.3739739 ] } },
{ "type": "Feature", "properties": { "osm_id": "1788450007", "code": 1002, "fclass": "town", "population": 10000, "name": "Karandeniya" }, "geometry": { "type": "Point", "coordinates": [ 80.0911885, 6.2706811 ] } },
{ "type": "Feature", "properties": { "osm_id": "1789585967", "code": 1003, "fclass": "village", "population": 1000, "name": "Polwatte Junction" }, "geometry": { "type": "Point", "coordinates": [ 80.2176357, 6.3530575 ] } },
{ "type": "Feature", "properties": { "osm_id": "1790041446", "code": 1003, "fclass": "village", "population": 5000, "name": "Dummaladeniya" }, "geometry": { "type": "Point", "coordinates": [ 80.1888661, 7.2209061 ] } },
{ "type": "Feature", "properties": { "osm_id": "1790051061", "code": 1004, "fclass": "hamlet", "population": 500, "name": "kuruduwattha Junction" }, "geometry": { "type": "Point", "coordinates": [ 80.1966035, 7.1969424 ] } },
{ "type": "Feature", "properties": { "osm_id": "1792701998", "code": 1003, "fclass": "village", "population": 0, "name": "Kellapatha Junction" }, "geometry": { "type": "Point", "coordinates": [ 80.2126314, 6.312202 ] } },
{ "type": "Feature", "properties": { "osm_id": "1792916650", "code": 1002, "fclass": "town", "population": 10000, "name": "Mapalagama" }, "geometry": { "type": "Point", "coordinates": [ 80.2856003, 6.221984 ] } },
{ "type": "Feature", "properties": { "osm_id": "1792917047", "code": 1010, "fclass": "suburb", "population": 10000, "name": "Thalgaswala" }, "geometry": { "type": "Point", "coordinates": [ 80.2730503, 6.2443307 ] } },
{ "type": "Feature", "properties": { "osm_id": "1794054467", "code": 1004, "fclass": "hamlet", "population": 500, "name": "Batuwandara" }, "geometry": { "type": "Point", "coordinates": [ 79.9479585, 6.7666328 ] } },
{ "type": "Feature", "properties": { "osm_id": "1794054490", "code": 1050, "fclass": "locality", "population": 0, "name": "Galtude Junction" }, "geometry": { "type": "Point", "coordinates": [ 79.9295371, 6.7371094 ] } },
{ "type": "Feature", "properties": { "osm_id": "1795284175", "code": 1050, "fclass": "locality", "population": 0, "name": "Gettuwa Junction" }, "geometry": { "type": "Point", "coordinates": [ 79.9335389, 6.7154478 ] } },
{ "type": "Feature", "properties": { "osm_id": "1795284366", "code": 1010, "fclass": "suburb", "population": 10000, "name": "Kurusa Handiya" }, "geometry": { "type": "Point", "coordinates": [ 79.9485915, 6.7072459 ] } },
{ "type": "Feature", "properties": { "osm_id": "1796612290", "code": 1010, "fclass": "suburb", "population": 10000, "name": "Mahawila" }, "geometry": { "type": "Point", "coordinates": [ 79.936189, 6.7070461 ] } },
{ "type": "Feature", "properties": { "osm_id": "1796612362", "code": 1010, "fclass": "suburb", "population": 10000, "name": "Eluwila" }, "geometry": { "type": "Point", "coordinates": [ 79.92774, 6.7087669 ] } },
{ "type": "Feature", "properties": { "osm_id": "1796612395", "code": 1010, "fclass": "suburb", "population": 10000, "name": "Mahabellana Junction" }, "geometry": { "type": "Point", "coordinates": [ 79.9632042, 6.7034392 ] } },
{ "type": "Feature", "properties": { "osm_id": "1796819714", "code": 1003, "fclass": "village", "population": 5000, "name": "Moragahahena" }, "geometry": { "type": "Point", "coordinates": [ 80.0551878, 6.7844301 ] } },
{ "type": "Feature", "properties": { "osm_id": "1796922858", "code": 1003, "fclass": "village", "population": 5000, "name": "Govinna" }, "geometry": { "type": "Point", "coordinates": [ 80.1182895, 6.675212 ] } },
{ "type": "Feature", "properties": { "osm_id": "1796922862", "code": 1010, "fclass": "suburb", "population": 10000, "name": "Egal Oya" }, "geometry": { "type": "Point", "coordinates": [ 80.1621858, 6.6794451 ] } },
{ "type": "Feature", "properties": { "osm_id": "1796923027", "code": 1003, "fclass": "village", "population": 5000, "name": "Thebuwana" }, "geometry": { "type": "Point", "coordinates": [ 80.05489, 6.5936816 ] } },
{ "type": "Feature", "properties": { "osm_id": "1796923125", "code": 1004, "fclass": "hamlet", "population": 200, "name": "Narthupana" }, "geometry": { "type": "Point", "coordinates": [ 80.0792653, 6.62449 ] } },
{ "type": "Feature", "properties": { "osm_id": "1796923177", "code": 1002, "fclass": "town", "population": 15000, "name": "Bulathsinhala" }, "geometry": { "type": "Point", "coordinates": [ 80.1780249, 6.6498951 ] } },
{ "type": "Feature", "properties": { "osm_id": "1796923201", "code": 1003, "fclass": "village", "population": 1000, "name": "Warakagoda" }, "geometry": { "type": "Point", "coordinates": [ 80.1021446, 6.616805 ] } },
{ "type": "Feature", "properties": { "osm_id": "1797915603", "code": 1050, "fclass": "locality", "population": 10000, "name": "Kahangama Junction" }, "geometry": { "type": "Point", "coordinates": [ 80.363379, 6.7008179 ] } },
{ "type": "Feature", "properties": { "osm_id": "1805745147", "code": 1002, "fclass": "town", "population": 15000, "name": "Karawanella" }, "geometry": { "type": "Point", "coordinates": [ 80.2629202, 7.0239285 ] } },
{ "type": "Feature", "properties": { "osm_id": "1805745169", "code": 1002, "fclass": "town", "population": 15000, "name": "Dehiowita" }, "geometry": { "type": "Point", "coordinates": [ 80.2659166, 6.9665597 ] } },
{ "type": "Feature", "properties": { "osm_id": "1805745280", "code": 1003, "fclass": "village", "population": 1000, "name": "Magammana" }, "geometry": { "type": "Point", "coordinates": [ 80.2624481, 7.0102862 ] } },
{ "type": "Feature", "properties": { "osm_id": "1805745304", "code": 1002, "fclass": "town", "population": 15000, "name": "Ruwanwella" }, "geometry": { "type": "Point", "coordinates": [ 80.2537792, 7.0458636 ] } },
{ "type": "Feature", "properties": { "osm_id": "1805791970", "code": 1003, "fclass": "village", "population": 10000, "name": "Urapola" }, "geometry": { "type": "Point", "coordinates": [ 80.1447522, 7.0978173 ] } },
{ "type": "Feature", "properties": { "osm_id": "1809578921", "code": 1002, "fclass": "town", "population": 15000, "name": "Yatiyantota" }, "geometry": { "type": "Point", "coordinates": [ 80.2950276, 7.0289554 ] } },
{ "type": "Feature", "properties": { "osm_id": "1809637891", "code": 1003, "fclass": "village", "population": 10000, "name": "Nugawela" }, "geometry": { "type": "Point", "coordinates": [ 80.5876229, 7.3283292 ] } },
{ "type": "Feature", "properties": { "osm_id": "1809677746", "code": 1003, "fclass": "village", "population": 15000, "name": "Halloluwa" }, "geometry": { "type": "Point", "coordinates": [ 80.6070953, 7.2907251 ] } },
{ "type": "Feature", "properties": { "osm_id": "1813587330", "code": 1003, "fclass": "village", "population": 5000, "name": "Sudugala" }, "geometry": { "type": "Point", "coordinates": [ 80.5998587, 5.9341422 ] } },
{ "type": "Feature", "properties": { "osm_id": "1813587947", "code": 1003, "fclass": "village", "population": 1000, "name": "Talalla" }, "geometry": { "type": "Point", "coordinates": [ 80.627464, 5.9482175 ] } },
{ "type": "Feature", "properties": { "osm_id": "1814571480", "code": 1002, "fclass": "town", "population": 5000, "name": "Padalangala" }, "geometry": { "type": "Point", "coordinates": [ 80.9133142, 6.2536678 ] } },